city,lat,lng,country,capital,population,id
Puerto Williams,-54.9333,-67.6167,Chile,minor,2500,1152455279
Ushuaia,-54.79,-68.31,Argentina,admin,58028,1032847885
Grytviken,-54.2806,-36.508,South Georgia And South Sandwich Islands,,99,1239048837
Rio Grande,-53.7914,-67.699,Argentina,minor,31095,1032824067
Punta Arenas,-53.165,-70.94,Chile,admin,117430,1152262933
Balsadero Rio Verde,-52.65,-71.4666,Chile,,358,1152114092
Puerto Natales,-51.7183,-72.5117,Chile,minor,20000,1152225106
Stanley,-51.7,-57.85,Falkland Islands (Islas Malvinas),,2213,1238780509
Veintiocho de Noviembre,-51.65,-72.3,Argentina,,5300,1032715340
Rio Gallegos,-51.6333,-69.2166,Argentina,admin,85700,1032471024
El Calafate,-50.3333,-72.3,Argentina,minor,8000,1032210475
Comandante Luis Piedra Buena,-49.9745,-68.9035,Argentina,,410,1032946044
San Julian,-49.3,-67.7167,Argentina,minor,2347,1032464702
Gobernador Gregores,-48.7666,-70.25,Argentina,minor,2519,1032720049
Villa O'Higgins,-48.4679,-72.56,Chile,,250,1152709181
Puerto Deseado,-47.75,-65.9,Argentina,minor,3305,1032537209
Cochrane,-47.2663,-72.5499,Chile,minor,4441,1152054657
Halfmoon Bay,-46.8876,168.1666,New Zealand,,310,1554077152
Perito Moreno,-46.6,-70.9334,Argentina,minor,3766,1032891854
Invercargill,-46.4094,168.365,New Zealand,admin,49200,1554148942
Glencoe,-46.0947,168.9604,New Zealand,,9750,1554979133
Dunedin,-45.8854,170.491,New Zealand,admin,117700,1554475997
Comodoro Rivadavia,-45.87,-67.5,Argentina,minor,140850,1032042035
Rio Mayo,-45.6834,-70.2666,Argentina,,1825,1032155044
Sarmiento,-45.6,-69.0833,Argentina,minor,5185,1032479340
Coyhaique,-45.57,-72.07,Chile,admin,45787,1152541137
Te Anau,-45.4074,167.7585,New Zealand,,1857,1554603580
Puerto Aysen,-45.3999,-72.7,Chile,minor,8067,1152158570
Alto Rio Senguer,-45.0333,-70.8333,Argentina,minor,1548,1032532362
Macetown,-45.0227,168.7251,New Zealand,,16600,1554582165
Wanaka,-44.698,169.1449,New Zealand,,5037,1554152950
Timaru,-44.3972,171.2425,New Zealand,,27200,1554243304
Waitangi,-44.0263,-176.3696,New Zealand,admin,300,1554847194
Ashton,-43.8983,171.7486,New Zealand,,17700,1554784264
Christchurch,-43.535,172.63,New Zealand,admin,363200,1554377228
Kairaki,-43.3813,172.651,New Zealand,,10200,1554001309
Rawson,-43.3,-65.1,Argentina,admin,26335,1032302344
Trelew,-43.25,-65.33,Argentina,,93442,1032440034
Quellon,-43.0996,-73.6,Chile,,7029,1152502358
Kingston,-42.9911,147.3084,Australia,,14371,1036297213
Esquel,-42.9,-71.3166,Argentina,minor,20048,1032489067
Hobart,-42.85,147.295,Australia,admin,80870,1036679838
Puerto Madryn,-42.77,-65.04,Argentina,minor,64555,1032351657
Hokitika,-42.7072,171.01,New Zealand,,3078,1554205461
Chonchi,-42.61,-73.8099,Chile,,381,1152428145
Castro,-42.4808,-73.7623,Chile,minor,29926,1152445107
Greymouth,-42.4716,171.2231,New Zealand,admin,10100,1554984303
Kaikoura,-42.4012,173.6897,New Zealand,,2172,1554578431
Telsen,-42.3996,-66.95,Argentina,minor,500,1032824407
Oatlands,-42.2996,147.3666,Australia,,1157,1036926323
Gastre,-42.283,-69.2333,Argentina,minor,557,1032815504
Queenstown,-42.0829,145.55,Australia,,2352,1036082142
El Maiten,-42.05,-71.1666,Argentina,,4269,1032286116
Bicheno,-41.8784,148.2886,Australia,,177,1036189642
Ancud,-41.87,-73.83,Chile,,28020,1152760614
Westport,-41.7638,171.6028,New Zealand,,3900,1554650685
Calbuco,-41.7522,-73.1416,Chile,,12490,1152875669
Blenheim,-41.5135,173.955,New Zealand,admin,30300,1554001426
Puerto Montt,-41.47,-72.93,Chile,admin,174629,1152443957
Launceston,-41.4498,147.1302,Australia,,72458,1036170383
Richmond,-41.339,173.185,New Zealand,admin,,1554001427
Puerto Varas,-41.33,-72.99,Chile,,24958,1152560692
Ingeniero Jacobacci,-41.3,-69.5833,Argentina,,5719,1032402027
Wellington,-41.3,174.7833,New Zealand,primary,393400,1554772152
Nelson,-41.2926,173.2474,New Zealand,admin,60800,1554017097
Renwick,-41.2805,174.0166,New Zealand,,2928,1554865401
Lower Hutt,-41.2037,174.9123,New Zealand,,102400,1554623632
Devonport,-41.1927,146.3311,Australia,,19317,1036033175
San Carlos de Bariloche,-41.15,-71.3,Argentina,minor,95394,1032111842
Scottsdale,-41.1495,147.5167,Australia,,2468,1036807079
Upper Hutt,-41.1355,175.029,New Zealand,,39200,1554000042
Porirua,-41.1219,174.8524,New Zealand,,52500,1554561880
Burnie,-41.0666,145.9167,Australia,,19972,1036394657
Comallo,-41.0333,-70.2666,Argentina,,741,1032806030
Masterton,-40.9439,175.6456,New Zealand,,20200,1554641049
Paraparaumu,-40.9034,174.9989,New Zealand,,25263,1554166459
Smithton,-40.8329,145.1167,Australia,,4202,1036207188
Viedma,-40.8,-63,Argentina,admin,59122,1032613063
San Antonio Oeste,-40.7329,-64.9333,Argentina,minor,8492,1032154473
Levin,-40.6124,175.2772,New Zealand,,19550,1554983635
Sierra Colorada,-40.5829,-67.8,Argentina,minor,1522,1032417224
Osorno,-40.57,-73.16,Chile,minor,154131,1152866014
Palmerston North,-40.3527,175.6072,New Zealand,admin,82400,1554138183
Rio Bueno,-40.34,-72.96,Chile,,15456,1152938619
La Union,-40.29,-73.09,Chile,minor,26298,1152649834
General Conesa,-40.1,-64.4333,Argentina,minor,2958,1032658385
Whanganui,-39.9326,175.0393,New Zealand,,43200,1554827998
Villalonga,-39.8829,-62.5833,Argentina,,2838,1032282782
Los Lagos,-39.8495,-72.83,Chile,,12813,1152340454
Valdivia,-39.795,-73.245,Chile,admin,159599,1152201132
Hawera,-39.5795,174.278,New Zealand,,11100,1554872573
Napier,-39.49,176.9265,New Zealand,admin,57800,1554064936
Pedro Luro,-39.4833,-62.6833,Argentina,,7100,1032549913
Loncoche,-39.37,-72.63,Chile,,15590,1152864736
Stratford,-39.3409,174.2845,New Zealand,admin,,1554001293
Villarrica,-39.28,-72.23,Chile,,31602,1152280288
Choele Choel,-39.2666,-65.6833,Argentina,minor,10000,1032421959
Tolten,-39.2166,-73.2123,Chile,,2293,1152450943
New Plymouth,-39.0556,174.0748,New Zealand,,52500,1554939405
General Roca,-39.02,-67.61,Argentina,,73212,1032803180
Turangi,-38.9889,175.8142,New Zealand,,3240,1554981086
Rio Colorado,-38.9666,-64.0833,Argentina,,11499,1032592194
Neuquen,-38.95,-68.06,Argentina,admin,242092,1032525768
Cutral-Co,-38.94,-69.24,Argentina,,47814,1032070013
Zapala,-38.9,-70.0667,Argentina,minor,19152,1032365659
Punta Alta,-38.88,-62.08,Argentina,minor,57209,1032629961
Nueva Imperial,-38.74,-72.96,Chile,,18777,1152277064
Bahia Blanca,-38.74,-62.265,Argentina,minor,281536,1032795766
Temuco,-38.73,-72.58,Chile,admin,265901,1152318955
Carahue,-38.7095,-73.17,Chile,,11875,1152919462
Taupo,-38.693,176.0771,New Zealand,,22600,1554654784
Gisborne,-38.6633,178.0181,New Zealand,admin,34300,1554359840
Wonthaggi,-38.6095,145.59,Australia,,5985,1036415078
Necochea,-38.56,-58.75,Argentina,minor,80478,1032624527
Las Lajas,-38.5163,-70.3666,Argentina,minor,1218,1032092474
Lonquimay,-38.4333,-71.2333,Chile,,10237,1152602801
Warrnambool,-38.38,142.47,Australia,,29928,1036291219
Tres Arroyos,-38.37,-60.2699,Argentina,minor,47136,1032291724
Portland,-38.34,141.59,Australia,,11808,1036439594
Colac,-38.3395,143.58,Australia,,9089,1036633113
Victoria,-38.2395,-72.34,Chile,,24555,1152078114
Tokoroa,-38.2245,175.8705,New Zealand,,13350,1554951529
Traralgon,-38.1996,146.53,Australia,,18226,1036938861
Geelong,-38.1675,144.3956,Australia,,160991,1036870987
Rotorua,-38.1317,176.2483,New Zealand,,56200,1554000379
Sale,-38.1096,147.06,Australia,,22486,1036960753
Cranbourne,-38.0996,145.2834,Australia,,460491,1036639986
Mar del Plata,-38,-57.58,Argentina,minor,555897,1032456103
Collipulli,-37.96,-72.43,Chile,,16392,1152908869
Whakatane,-37.9574,176.9828,New Zealand,admin,18700,1554253729
Cambridge,-37.8894,175.4703,New Zealand,,15192,1554000848
Balcarce,-37.8333,-58.25,Argentina,minor,18967,1032847478
Mount Gambier,-37.8313,140.765,Australia,,23209,1036932780
Bairnsdale,-37.8296,147.61,Australia,,11005,1036432237
Melbourne,-37.82,144.975,Australia,admin,4170000,1036533631
Veinticinco de Mayo,-37.8,-67.6833,Argentina,minor,17430,1032912712
Angol,-37.79,-72.71,Chile,minor,44856,1152404762
Hamilton,-37.7783,175.2896,New Zealand,admin,148200,1554873040
Hamilton,-37.7312,142.0234,Australia,,8869,1036699883
Darregueira,-37.6996,-63.1666,Argentina,,3412,1032968004
Tauranga,-37.6964,176.1536,New Zealand,,121500,1554759867
Melton,-37.6895,144.57,Australia,,32368,1036007778
Santa Barbara,-37.67,-72.02,Chile,,3494,1152827647
Benito Juarez,-37.6655,-59.8,Argentina,minor,10609,1032382110
Lebu,-37.6096,-73.65,Chile,minor,22345,1152064207
Sunbury,-37.5696,144.71,Australia,,29925,1036519781
Ballarat,-37.5596,143.84,Australia,,85109,1036567186
Curanilahue,-37.48,-73.34,Chile,,30611,1152226096
Coronel Suarez,-37.4666,-61.9166,Argentina,minor,27000,1032444981
Los Angeles,-37.46,-72.36,Chile,minor,145239,1152810305
Chos Malal,-37.383,-70.2666,Argentina,minor,8556,1032817076
Penola,-37.383,140.8167,Australia,,1514,1036121853
Tandil,-37.32,-59.15,Argentina,minor,104325,1032075057
Ararat,-37.2795,142.91,Australia,,6110,1036674088
Pukekohe East,-37.2015,174.9033,New Zealand,,26300,1554599644
Carhue,-37.1829,-62.7333,Argentina,minor,7190,1032595269
Thames,-37.1384,175.5853,New Zealand,,6756,1554802053
Lota,-37.0896,-73.16,Chile,,49763,1152978276
Edinburgh of the Seven Seas,-37.0675,-12.3105,"Saint Helena, Ascension, And Tristan Da Cunha",admin,,1654661876
Stawell,-37.0596,142.76,Australia,,6991,1036073093
Maryborough,-37.0496,143.73,Australia,,7046,1036781601
Seymour,-37.0342,145.1273,Australia,,3693,1036919223
Coronel,-37.03,-73.16,Chile,,92940,1152234834
Manukau City,-37,174.885,New Zealand,,375600,1554797148
Olavarria,-36.9,-60.33,Argentina,minor,86320,1032373353
Merimbula,-36.8996,149.9,Australia,,6367,1036933197
Waitakere,-36.8524,174.5543,New Zealand,,208100,1554034359
Auckland,-36.8481,174.763,New Zealand,admin,1377200,1554435911
Kingston South East,-36.8328,139.8501,Australia,,206,1036261175
Concepcion,-36.83,-73.05,Chile,admin,889725,1152838958
Northcote,-36.7913,174.7758,New Zealand,,205605,1554717659
Azul,-36.7796,-59.87,Argentina,minor,53941,1032652005
Bendigo,-36.76,144.28,Australia,,81657,1036537913
Talcahuano,-36.7167,-73.1167,Chile,,288074,1152023044
Mar de Ajo,-36.7162,-56.6766,Argentina,,13610,1032066406
Horsham,-36.7096,142.19,Australia,,12830,1036654340
Santa Rosa,-36.62,-64.3,Argentina,admin,111424,1032215828
Chillan,-36.6,-72.106,Chile,admin,150396,1152082093
Shepparton,-36.3746,145.3914,Australia,,33550,1036030548
Wangaratta,-36.36,146.3,Australia,,14022,1036395326
Dolores,-36.33,-57.69,Argentina,minor,25190,1032650497
Bordertown,-36.3162,140.7666,Australia,,2583,1036115980
Quirihue,-36.28,-72.53,Chile,,6529,1152146130
Cooma,-36.2396,149.12,Australia,,6520,1036070931
Victorica,-36.2163,-65.45,Argentina,minor,4458,1032392251
Echuca,-36.1296,144.75,Australia,,19457,1036292989
Albury,-36.06,146.92,Australia,,104258,1036076542
Cauquenes,-35.96,-72.32,Chile,minor,31362,1152787999
Cobram,-35.9196,145.65,Australia,,4659,1036438159
Linares,-35.84,-71.59,Chile,minor,81015,1152783281
Whangarei,-35.7256,174.323,New Zealand,admin,52200,1554000636
Meningie,-35.6995,139.3333,Australia,,1501,1036445634
Batemans Bay,-35.6896,150.2073,Australia,,10557,1036272805
General Pico,-35.6596,-63.77,Argentina,minor,57029,1032081531
Chascomus,-35.5662,-58.0166,Argentina,minor,21054,1032352363
Victor Harbor,-35.5596,138.6173,Australia,,7760,1036536547
Deniliquin,-35.5296,144.95,Australia,,8024,1036325219
Malargue,-35.4661,-69.5833,Argentina,minor,11847,1032824937
Talca,-35.455,-71.67,Chile,admin,197479,1152736946
Nueve de Julio,-35.446,-60.89,Argentina,minor,34718,1032287957
Veinticinco de Mayo,-35.43,-60.18,Argentina,minor,24668,1032801782
Queanbeyan,-35.3546,149.2113,Australia,,32602,1036846465
Ulladulla,-35.3495,150.47,Australia,,9250,1036687220
Swan Hill,-35.3396,143.54,Australia,,9276,1036220501
Constitucion,-35.3296,-72.42,Chile,,37917,1152065066
Tumut,-35.3096,148.22,Australia,,6526,1036777587
Canberra,-35.283,149.129,Australia,primary,327700,1036142029
Kerikeri,-35.2285,173.9507,New Zealand,,5856,1554530676
Lobos,-35.1849,-59.0947,Argentina,minor,18278,1032314483
Murray Bridge,-35.1296,139.26,Australia,,18194,1036345943
Wagga Wagga,-35.1222,147.34,Australia,,55381,1036273188
Kaitaia,-35.1099,173.2727,New Zealand,,5202,1554000934
Ouyen,-35.0662,142.3167,Australia,,1400,1036764173
Albany,-35.0169,117.8916,Australia,,26445,1036047365
Curico,-34.98,-71.24,Chile,minor,113711,1152564798
Punta del Este,-34.97,-54.95,Uruguay,,159000,1858267433
Adelaide,-34.935,138.6,Australia,admin,1145000,1036538171
Maldonado,-34.91,-54.96,Uruguay,admin,55478,1858958595
La Plata,-34.9096,-57.96,Argentina,admin,694253,1032403831
Chivilcoy,-34.9,-60.04,Argentina,minor,54514,1032269915
Nowra,-34.8828,150.6,Australia,,94781,1036984536
Lincoln,-34.88,-61.5399,Argentina,minor,24798,1032332688
Montevideo,-34.858,-56.1711,Uruguay,primary,1513000,1858107000
Goulburn,-34.7496,149.7102,Australia,,20940,1036347537
Port Lincoln,-34.7332,135.8666,Australia,,13630,1036558150
Kiama,-34.7096,150.84,Australia,,10379,1036754695
La Paloma,-34.67,-54.17,Uruguay,,3230,1858559267
Mercedes,-34.66,-59.44,Argentina,minor,52949,1032994289
Chacabuco,-34.65,-60.49,Argentina,minor,34587,1032210547
Mount Barker,-34.6328,117.6666,Australia,,1781,1036651498
Gawler,-34.6074,138.7264,Australia,,16362,1036309493
Buenos Aires,-34.6025,-58.3975,Argentina,primary,12795000,1032717330
San Rafael,-34.6,-68.3333,Argentina,minor,109163,1032221516
Junin,-34.5846,-60.9589,Argentina,minor,85007,1032976047
San Fernando,-34.58,-70.99,Chile,minor,60746,1152802349
Lujan,-34.5796,-59.11,Argentina,minor,81749,1032704827
Leeton,-34.5449,146.3973,Australia,,7299,1036102538
Canelones,-34.538,-56.284,Uruguay,admin,19698,1858741797
Bredasdorp,-34.5295,20.03,South Africa,,14936,1710282172
Rocha,-34.483,-54.333,Uruguay,admin,26874,1858936449
Colonia del Sacramento,-34.48,-57.84,Uruguay,admin,21714,1858338569
Santa Lucia,-34.47,-56.4,Uruguay,,16438,1858287723
Wollongong,-34.4154,150.89,Australia,,260914,1036502269
Hermanus,-34.4096,19.2299,South Africa,,25153,1710409701
Tumby Bay,-34.3829,136.0833,Australia,,1791,1036529327
Pichilemu,-34.38,-72,Chile,minor,11603,1152498637
Minas,-34.37,-55.23,Uruguay,admin,41180,1858724823
San Jose,-34.35,-56.71,Uruguay,admin,36529,1858927597
Young,-34.3096,148.29,Australia,,7501,1036073044
Griffith,-34.29,146.04,Australia,,15455,1036563313
Berri,-34.2829,140.6,Australia,,4716,1036554717
Manjimup,-34.2333,116.15,Australia,,4240,1036022434
Aigua,-34.2,-54.75,Uruguay,,2692,1858068520
Mildura,-34.185,142.1514,Australia,,47867,1036624348
Rancagua,-34.17,-70.74,Chile,admin,233268,1152672356
Mossel Bay,-34.17,22.13,South Africa,,16743,1710597106
Castillos,-34.1696,-53.83,Uruguay,,7686,1858885344
Campana,-34.16,-58.96,Argentina,minor,81612,1032345885
Florida,-34.099,-56.215,Uruguay,admin,32234,1858077099
Zarate,-34.0896,-59.04,Argentina,minor,88781,1032392383
Knysna,-34.0329,23.0333,South Africa,,63106,1710311704
Swellendam,-34.0196,20.43,South Africa,,13674,1710416218
Carmelo,-33.9896,-58.3,Uruguay,,16921,1858670999
Port Elizabeth,-33.97,25.6,South Africa,,1021000,1710918997
George,-33.95,22.45,South Africa,,174582,1710164136
Wallaroo,-33.9329,137.6333,Australia,,2779,1036743246
Cape Town,-33.92,18.435,South Africa,primary,3215000,1710680650
Sydney,-33.92,151.1852,Australia,admin,4630000,1036074917
Pergamino,-33.8996,-60.57,Argentina,minor,87652,1032214150
Esperance,-33.8573,121.8889,Australia,,7888,1036299314
Clare,-33.8329,138.6,Australia,,3061,1036842122
Cowra,-33.8296,148.68,Australia,,6795,1036204877
Uitenhage,-33.7596,25.39,South Africa,,228912,1710276157
Venado Tuerto,-33.7496,-61.97,Argentina,,72340,1032284763
Katoomba,-33.7069,150.32,Australia,,22076,1036674004
Paarl,-33.6996,18.96,South Africa,,187865,1710440011
Katanning,-33.6996,117.5501,Australia,,3934,1036411379
Villa Mercedes,-33.6896,-65.47,Argentina,minor,49345,1032858021
Cowell,-33.6829,136.9166,Australia,,537,1036921929
Lascano,-33.6696,-54.2,Uruguay,,6976,1858593854
Busselton,-33.6564,115.3487,Australia,,10214,1036911902
Worcester,-33.64,19.4399,South Africa,,127597,1710498245
San Bernardo,-33.6,-70.7,Chile,minor,246762,1152050361
San Antonio,-33.5995,-71.61,Chile,minor,104292,1152830501
Port Alfred,-33.5995,26.88,South Africa,,17959,1710920478
Richmond,-33.5995,150.74,Australia,,13880,1036934091
Ravensthorpe,-33.5829,120.0333,Australia,,1101,1036878618
Oudtshoorn,-33.58,22.19,South Africa,,76708,1710502855
Tunuyan,-33.5662,-69.0167,Argentina,minor,22834,1032526901
Trinidad,-33.544,-56.901,Uruguay,,21093,1858903609
Santa Vitoria do Palmar,-33.52,-53.37,Brazil,,27775,1076114405
Trinidad,-33.5169,-56.8981,Uruguay,admin,,1858693926
Lithgow,-33.4961,150.1528,Australia,,11128,1036591538
Jose Batlle y Ordonez,-33.47,-55.12,Uruguay,,2438,1858852252
La Paz,-33.4661,-67.55,Argentina,minor,4400,1032294439
Santiago,-33.45,-70.667,Chile,primary,5720000,1152554349
Central Coast,-33.42,151.3,Australia,,3026,1036067845
Bathurst,-33.4196,149.57,Australia,,6111,1036446465
Durazno,-33.41,-56.51,Uruguay,admin,34037,1858006236
Forbes,-33.3896,148.02,Australia,,4838,1036523834
Bunbury,-33.3443,115.6502,Australia,,26998,1036561011
San Nicolas de los Arroyos,-33.33,-60.24,Argentina,minor,127742,1032067887
San Luis,-33.3,-66.35,Argentina,admin,432310,1032547434
Grahamstown,-33.2996,26.52,South Africa,,91548,1710671857
Wagin,-33.2996,117.35,Australia,,1598,1036851354
Orange,-33.28,149.1,Australia,,39329,1036760396
Mercedes,-33.2595,-58.03,Uruguay,admin,42359,1858182538
Villa Constitucion,-33.23,-60.35,Argentina,minor,44271,1032793574
Treinta y Tres,-33.23,-54.38,Uruguay,admin,27684,1858879204
Port Pirie,-33.1911,137.99,Australia,,12506,1036571606
Gualeguay,-33.15,-59.34,Argentina,minor,33120,1032077195
Kimba,-33.1496,136.4334,Australia,,636,1036035341
Fray Bentos,-33.139,-58.304,Uruguay,admin,23279,1858727525
Rio Cuarto,-33.13,-64.35,Argentina,minor,153757,1032552145
Parkes,-33.1296,148.17,Australia,,11137,1036977270
San Martin,-33.07,-68.49,Argentina,minor,117399,1032297325
Valparaiso,-33.0478,-71.621,Chile,admin,854000,1152337970
Vina del Mar,-33.03,-71.54,Chile,,503534,1152898644
Whyalla,-33.025,137.5614,Australia,,22559,1036961366
Gualeguaychu,-33.02,-58.52,Argentina,minor,78676,1032523704
Saldanha,-33.01,17.93,South Africa,,68284,1710078862
East London,-32.97,27.87,South Africa,,338627,1710178149
Peterborough,-32.9662,138.8333,Australia,,1689,1036104272
Rosario,-32.9511,-60.6663,Argentina,minor,1203000,1032770677
Narrogin,-32.9329,117.1666,Australia,,4238,1036221961
Vergara,-32.93,-53.95,Uruguay,,3998,1858979569
Ivanhoe,-32.8996,144.3,Australia,,265,1036571526
Mendoza,-32.8833,-68.8166,Argentina,admin,893000,1032433516
Quillota,-32.88,-71.26,Chile,minor,79686,1152185579
Bhisho,-32.87,27.39,South Africa,admin,160997,1710672530
Newcastle,-32.8453,151.815,Australia,,1134616,1036468001
Los Andes,-32.8296,-70.6,Chile,minor,56859,1152833598
Las Heras,-32.825,-68.8017,Argentina,minor,66663,1032781204
Streaky Bay,-32.8119,134.2149,Australia,,1060,1036134944
Paso de los Toros,-32.81,-56.51,Uruguay,,13221,1858768851
San Felipe,-32.75,-70.72,Chile,minor,59294,1152329463
Maitland,-32.721,151.555,Australia,,18625,1036034945
Victoria,-32.61,-60.18,Argentina,minor,25139,1032557014
Bell Ville,-32.6,-62.68,Argentina,minor,35105,1032028928
Uspallata,-32.5931,-69.346,Argentina,,2390,1032547934
Mudgee,-32.5896,149.5801,Australia,,5391,1036213564
Singleton,-32.5695,151.16,Australia,,13813,1036947514
Jaguarao,-32.56,-53.37,Brazil,,29613,1076878261
Mandurah,-32.5235,115.7471,Australia,,73356,1036773118
Port Augusta,-32.49,137.77,Australia,,13897,1036945368
Concepcion del Uruguay,-32.48,-58.24,Argentina,minor,67895,1032999059
La Ligua,-32.46,-71.24,Chile,minor,26665,1152826056
Villa Maria,-32.41,-63.26,Argentina,minor,92453,1032987787
Melo,-32.3595,-54.18,Uruguay,admin,55494,1858600801
Beaufort West,-32.3496,22.57,South Africa,,44737,1710940488
Paysandu,-32.33,-58.08,Uruguay,admin,79016,1858756515
Graaff-Reinet,-32.3,24.54,South Africa,,62896,1710616617
Muswellbrook,-32.2696,150.89,Australia,,11630,1036253543
Dubbo,-32.26,148.5973,Australia,,31574,1036855042
Kwinana,-32.2394,115.7702,Australia,,20086,1036753478
Norseman,-32.2,121.7666,Australia,,1004,1036257263
Cradock,-32.1995,25.61,South Africa,,32898,1710933404
Tuncurry,-32.1931,152.5266,Australia,,17591,1036846186
Villa Rumipal,-32.1833,-64.4833,Argentina,,1269,1032717709
Rio Tercero,-32.1796,-64.12,Argentina,,53389,1032103221
Ceduna,-32.0991,133.6623,Australia,,1586,1036725988
Scone,-32.0796,150.8501,Australia,,4624,1036918224
Rio Grande,-32.0495,-52.12,Brazil,,187838,1076567920
Perth,-31.955,115.84,Australia,admin,1532000,1036178956
Broken Hill,-31.95,141.4331,Australia,,17395,1036216956
Queenstown,-31.8996,26.88,South Africa,,105309,1710110028
Taree,-31.8976,152.4618,Australia,,44182,1036855717
Salamanca,-31.7796,-70.98,Chile,,20214,1152804087
Pelotas,-31.75,-52.33,Brazil,,320674,1076815692
Parana,-31.7333,-60.5333,Argentina,admin,262295,1032266693
Tacuarembo,-31.71,-55.98,Uruguay,admin,54277,1858952595
Alta Gracia,-31.66,-64.43,Argentina,minor,40384,1032411567
Northam,-31.6566,116.6534,Australia,,5855,1036868267
Illapel,-31.6296,-71.17,Chile,minor,26340,1152446656
Port Saint John's,-31.6279,29.5283,South Africa,,5939,1710506018
Santa Fe,-31.6239,-60.69,Argentina,admin,489505,1032817575
Vanrhynsdorp,-31.6166,18.7333,South Africa,,3331,1710187274
Umtata,-31.58,28.79,South Africa,,137772,1710651314
Wilcannia,-31.5662,143.3833,Australia,,442,1036134474
San Juan,-31.55,-68.52,Argentina,admin,447048,1032869625
Middelburg,-31.5,25.01,South Africa,,18164,1710010705
Merredin,-31.4828,118.2667,Australia,,2668,1036578320
Port Macquarie,-31.445,152.9187,Australia,,48547,1036051032
San Francisco,-31.43,-62.09,Argentina,minor,59062,1032491643
Villa Carlos Paz,-31.42,-64.5,Argentina,,69451,1032854975
Cordoba,-31.4,-64.1823,Argentina,admin,1452000,1032803249
Salto,-31.3903,-57.9687,Uruguay,admin,105690,1858575950
Concordia,-31.3896,-58.03,Argentina,minor,145210,1032923957
Sao Lourenco do Sul,-31.37,-51.98,Brazil,,25340,1076758883
Chepes,-31.35,-66.6,Argentina,minor,6020,1032137147
Gingin,-31.3496,115.9,Australia,,1446,1036686561
Bage,-31.32,-54.1,Brazil,,106098,1076515015
Rafaela,-31.25,-61.5,Argentina,minor,88713,1032181625
Southern Cross,-31.2161,119.3167,Australia,,187,1036931490
Tranqueras,-31.2,-55.75,Uruguay,,7474,1858843479
Combarbala,-31.18,-71,Chile,,5134,1152896722
Woomera,-31.1496,136.8,Australia,,450,1036392822
Tamworth,-31.1026,150.9171,Australia,,38551,1036233388
Kempsey,-31.0874,152.822,Australia,,11840,1036897003
Gunnedah,-30.987,150.2623,Australia,,7148,1036500021
Carnarvon,-30.9496,22.1333,South Africa,,5785,1710331786
Sunchales,-30.9329,-61.5666,Argentina,,12655,1032630690
Rivera,-30.8996,-55.56,Uruguay,admin,200000,1858819782
Kingoonya,-30.8996,135.3,Australia,,50,1036942792
Santana do Livramento,-30.88,-55.53,Brazil,,89694,1076271841
Camaqua,-30.8396,-51.81,Brazil,,53169,1076449009
San Justo,-30.7829,-60.5833,Argentina,minor,9607,1032734419
Kalgoorlie,-30.7354,121.46,Australia,,36852,1036087904
Baltasar Brum,-30.73,-57.32,Uruguay,,2517,1858039985
Colesberg,-30.7195,25.1,South Africa,,12423,1710885210
Port Shepstone,-30.7195,30.46,South Africa,,52793,1710443227
Aliwal North,-30.6896,26.71,South Africa,,44436,1710445896
De Aar,-30.65,24,South Africa,,32318,1710551900
Ovalle,-30.59,-71.2001,Chile,minor,77138,1152767334
Armidale,-30.5123,151.6675,Australia,,22673,1036975829
Andamooka,-30.431,137.1656,Australia,,528,1036260794
Artigas,-30.416,-56.486,Uruguay,admin,41909,1858646839
Quthing,-30.411,27.716,Lesotho,admin,24130,1426618526
Quarai,-30.38,-56.4599,Brazil,,23229,1076203994
Chamical,-30.3496,-66.3167,Argentina,minor,8989,1032026963
Narrabri,-30.3319,149.7874,Australia,,7082,1036714493
Sao Gabriel,-30.32,-54.32,Brazil,,55434,1076674208
Coffs Harbour,-30.3071,153.1123,Australia,,62978,1036320442
Bella Union,-30.2596,-57.6,Uruguay,,22723,1858883224
Rosario do Sul,-30.25,-54.92,Brazil,,36721,1076900712
Rodeo,-30.2156,-69.14,Argentina,minor,701,1032937217
Mohale's Hoek,-30.159,27.48,Lesotho,admin,24992,1426343192
Qacha's Nek,-30.1154,28.6894,Lesotho,admin,,1426361264
Bourke,-30.1,145.9333,Australia,,2475,1036074667
Porto Alegre,-30.05,-51.2,Brazil,admin,3917000,1076658221
Cachoeira do Sul,-30.03,-52.91,Brazil,,74694,1076336795
Vicuna,-30.0295,-70.74,Chile,,13496,1152771899
Coquimbo,-29.9529,-71.3436,Chile,minor,161317,1152038253
Canoas,-29.92,-51.18,Brazil,,600000,1076009922
La Serena,-29.9,-71.25,Chile,admin,154521,1152155065
Osorio,-29.88,-50.27,Brazil,,34628,1076367566
Durban,-29.865,30.98,South Africa,,2729000,1710149138
Mafeteng,-29.8166,27.25,Lesotho,admin,57059,1426506047
Uruguaiana,-29.7696,-57.09,Brazil,,123480,1076680267
Inverell,-29.7668,151.1126,Australia,,8561,1036652902
Grafton,-29.712,152.9377,Australia,,9955,1036615468
Santa Cruz do Sul,-29.71,-52.44,Brazil,,113625,1076862896
Novo Hamburgo,-29.7096,-51.14,Brazil,,876990,1076221386
Santa Maria,-29.6833,-53.8,Brazil,,249219,1076178738
Springbok,-29.6667,17.8833,South Africa,,10438,1710894218
Prieska,-29.6595,22.73,South Africa,,11236,1710649877
Pietermaritzburg,-29.61,30.39,South Africa,admin,750845,1710690280
Three Springs,-29.5333,115.75,Australia,,190,1036669084
Thaba-Tseka,-29.522,28.6084,Lesotho,admin,,1426611266
Moree,-29.4699,149.8301,Australia,,8203,1036377829
Vera,-29.4662,-60.2166,Argentina,minor,9979,1032305174
Yamba,-29.423,153.3533,Australia,,1806,1036259324
La Rioja,-29.41,-66.85,Argentina,admin,162620,1032864257
Canela,-29.36,-50.81,Brazil,,60806,1076049094
Maseru,-29.3167,27.4833,Lesotho,primary,361324,1426977668
Mokhotlong,-29.291,29.078,Lesotho,admin,8809,1426785819
Port Denison,-29.2828,114.9166,Australia,,1213,1036873405
Morawa,-29.2163,116,Australia,,259,1036194388
Caxias do Sul,-29.18,-51.17,Brazil,,381270,1076809957
Mercedes,-29.1796,-58.08,Argentina,minor,30649,1032972413
Bento Goncalves,-29.1695,-51.52,Brazil,,94271,1076492877
Chilecito,-29.1655,-67.5,Argentina,minor,20343,1032078195
Teyateyaneng,-29.153,27.753,Lesotho,admin,5115,1426159118
Goya,-29.14,-59.27,Argentina,minor,72304,1032251925
Reconquista,-29.1395,-59.65,Argentina,minor,90184,1032927391
Pofadder,-29.1329,19.3834,South Africa,,4220,1710817164
Bloemfontein,-29.12,26.2299,South Africa,primary,463064,1710495933
Chanaral,-29.03,-71.43,Chile,,13543,1152323837
Ararangua,-28.94,-49.5,Brazil,,43444,1076532332
Leonora,-28.8815,121.328,Australia,,227,1036140404
Leribe,-28.878,28.056,Lesotho,admin,47675,1426721246
Chumbicha,-28.8666,-66.2333,Argentina,minor,2572,1032994295
Ballina,-28.8614,153.568,Australia,,14242,1036040102
Lismore,-28.8167,153.2931,Australia,,31430,1036024174
Geraldton,-28.7666,114.6,Australia,,27258,1036811875
Butha-Buthe,-28.75,28.25,Lesotho,admin,16330,1426574356
Kimberley,-28.7468,24.77,South Africa,admin,165264,1710282622
Brandfort,-28.6996,26.47,South Africa,,12091,1710953731
Criciuma,-28.68,-49.39,Brazil,,204217,1076000206
Sao Borja,-28.6596,-56.01,Brazil,,59613,1076315333
Byron Bay,-28.6565,153.6129,Australia,,6764,1036606974
Frias,-28.6496,-65.15,Argentina,minor,13594,1032077058
Laverton,-28.627,122.404,Australia,,316,1036624366
Alexander Bay,-28.6083,16.5033,South Africa,,1500,1710616152
Vallenar,-28.57,-70.76,Chile,minor,44895,1152000009
Goondiwindi,-28.5548,150.3253,Australia,,4251,1036452066
Oranjemund,-28.5495,16.43,Namibia,,8496,1516991599
Ladysmith,-28.5495,29.78,South Africa,,47375,1710998347
Vacaria,-28.4996,-50.94,Brazil,,56765,1076001152
Tubarao,-28.48,-49.02,Brazil,,92275,1076663243
Laguna,-28.48,-48.78,Brazil,,39711,1076025747
San Fernando del Valle de Catamarca,-28.47,-65.78,Argentina,admin,188812,1032260908
Huasco,-28.4696,-71.22,Chile,,2558,1152643675
Anatuya,-28.4661,-62.8333,Argentina,minor,14133,1032511298
Upington,-28.46,21.23,South Africa,,71373,1710210449
Sao Luis Gonzaga,-28.41,-54.96,Brazil,,31798,1076320357
Ijui,-28.3895,-53.9199,Brazil,,71202,1076683915
Ulundi,-28.3296,31.41,South Africa,,20753,1710823263
Santo Angelo,-28.3,-54.28,Brazil,,65420,1076113692
Carazinho,-28.29,-52.8,Brazil,,59417,1076906274
Passo Fundo,-28.25,-52.42,Brazil,,179529,1076763340
Imbituba,-28.2296,-48.66,Brazil,,43450,1076391605
Warwick,-28.2292,152.0203,Australia,,12347,1036412726
Bethlehem,-28.2196,28.3,South Africa,,83654,1710750307
Tweed Heads,-28.1826,153.5466,Australia,,33065,1036571941
San Lorenzo,-28.12,-58.77,Argentina,,47626,1032610376
Gold Coast,-28.0815,153.4482,Australia,,527660,1036153217
Tinogasta,-28.0666,-67.5666,Argentina,minor,587,1032163046
Mount Magnet,-28.0662,117.8167,Australia,,424,1036327720
Karasburg,-28.0196,18.74,Namibia,,6054,1516005938
Thargomindah,-28,143.8167,Australia,,203,1036793708
Welkom,-27.97,26.73,South Africa,,431944,1710480365
Santa Rosa,-27.8695,-54.46,Brazil,,59281,1076071027
Lajes,-27.8096,-50.31,Brazil,,164676,1076517475
Santiago del Estero,-27.7833,-64.2667,Argentina,admin,354692,1032492280
Vryheid,-27.76,30.79,South Africa,,150012,1710716158
Kalbarri,-27.6662,114.1667,Australia,,1537,1036429141
Kroonstad,-27.66,27.21,South Africa,,103992,1710508288
Belen,-27.6496,-67.0333,Argentina,minor,11359,1032969950
Bloemhof,-27.6496,25.59,South Africa,,17122,1710321800
Erechim,-27.63,-52.27,Brazil,,96087,1076359548
Villa Angela,-27.5833,-60.7167,Argentina,minor,30051,1032039944
Florianopolis,-27.58,-48.52,Brazil,admin,1023000,1076190259
Ubombo,-27.5661,32.0833,South Africa,,564,1710203500
Toowoomba,-27.5645,151.9555,Australia,,92800,1036765315
Corrientes,-27.49,-58.81,Argentina,admin,340823,1032173097
Tierra Amarilla,-27.48,-70.28,Chile,,12888,1152576362
Resistencia,-27.46,-58.99,Argentina,admin,387158,1032720891
Brisbane,-27.455,153.0351,Australia,admin,1860000,1036192929
Kuruman,-27.4496,23.42,South Africa,,10006,1710332978
Copiapo,-27.36,-70.34,Chile,admin,129280,1152406965
Volksrust,-27.3596,29.89,South Africa,,43378,1710664906
Posadas,-27.3578,-55.8851,Argentina,admin,357119,1032970696
Encarnacion,-27.3472,-55.8739,Paraguay,admin,357119,1600377819
Lavumisa,-27.2962,31.9,Swaziland,,3695,1748490870
Concordia,-27.23,-52.03,Brazil,,55367,1076922195
Charata,-27.2163,-61.2,Argentina,minor,18297,1032241417
Dalby,-27.1939,151.2657,Australia,,9847,1036053707
Coronel Jose Felix Bogado,-27.17,-56.25,Paraguay,,14297,1600512741
Joacaba,-27.17,-51.5,Brazil,,38876,1076899882
Brusque,-27.13,-48.93,Brazil,,88284,1076418225
Nhlangano,-27.1122,31.1983,Swaziland,admin,,1748301792
Chapeco,-27.1,-52.64,Brazil,,160157,1076258255
Caboolture,-27.083,152.95,Australia,,31513,1036273434
Hohenau,-27.0795,-55.75,Paraguay,,5306,1600972500
Bongaree,-27.0787,153.1509,Australia,,13649,1036269345
Caldera,-27.0696,-70.83,Chile,,10259,1152916235
Hlatikulu,-27,31.4167,Swaziland,,2748,1748564468
Vryburg,-26.96,24.73,South Africa,,49588,1710969597
Standerton,-26.9395,29.24,South Africa,,74021,1710222465
Blumenau,-26.92,-49.09,Brazil,,293949,1076618665
Itajai,-26.8996,-48.68,Brazil,,327126,1076348188
Klerksdorp,-26.88,26.62,South Africa,,178921,1710416691
Pilar,-26.8695,-58.3,Paraguay,admin,28435,1600377954
San Miguel de Tucuman,-26.816,-65.2166,Argentina,admin,830000,1032233996
Caloundra,-26.8,153.1333,Australia,,38706,1036266942
Presidencia Roque Saenz Pena,-26.79,-60.45,Argentina,minor,81879,1032464495
Cacador,-26.77,-51.02,Brazil,,63726,1076703793
Potchefstroom,-26.6996,27.1,South Africa,,123669,1710838885
San Juan Bautista,-26.68,-57.15,Paraguay,admin,7882,1600185723
Vereeniging,-26.6496,27.96,South Africa,,1074000,1710271883
Luderitz,-26.648,15.1594,Namibia,,15137,1516141896
Quilpie,-26.6166,144.25,Australia,,560,1036696232
Meekatharra,-26.6,118.4833,Australia,,654,1036608457
Keetmanshoop,-26.5739,18.13,Namibia,admin,18039,1516607376
Roma,-26.5594,148.7907,Australia,,5496,1036698836
Kingaroy,-26.539,151.8406,Australia,,8573,1036463308
Pampa del Infierno,-26.5166,-61.1666,Argentina,minor,2921,1032896072
Bethanie,-26.4995,17.15,Namibia,,10363,1516358571
Manzini,-26.495,31.388,Swaziland,admin,110537,1748177431
Palmas,-26.48,-52,Brazil,,39150,1076528204
Jaragua do Sul,-26.48,-49.1,Brazil,,130130,1076588128
Bethal,-26.4696,29.45,South Africa,,101919,1710328253
Lobamba,-26.4667,31.2,Swaziland,primary,9782,1748963140
Siteki,-26.455,31.952,Swaziland,admin,6152,1748933140
Charleville,-26.4,146.25,Australia,,1900,1036575498
Diego de Almagro,-26.3696,-70.05,Chile,,18137,1152585849
Joinvile,-26.32,-48.8399,Brazil,,988000,1076050637
Mbabane,-26.3167,31.1333,Swaziland,primary,90138,1748811945
Springs,-26.2696,28.43,South Africa,,236083,1710058382
Porto Uniao,-26.2396,-51.08,Brazil,,71578,1076057988
Sao Francisco do Sul,-26.2396,-48.6,Brazil,,36224,1076452788
Trancas,-26.2167,-65.2833,Argentina,minor,1599,1032418123
Caazapa,-26.2,-56.38,Paraguay,admin,5504,1600103814
Eldorado,-26.2,-54.6,Argentina,minor,17365,1032056096
Gympie,-26.1886,152.6709,Australia,,11649,1036391013
Canoinhas,-26.18,-50.4,Brazil,,41498,1076606234
Formosa,-26.1728,-58.1828,Argentina,admin,221383,1032802536
Johannesburg,-26.17,28.03,South Africa,admin,3435000,1710550792
Benoni,-26.1496,28.3299,South Africa,,2986000,1710880986
Rio Negro,-26.1,-49.79,Brazil,,65597,1076653242
Cafayate,-26.0829,-65.9666,Argentina,minor,11785,1032961594
Abai,-26.0296,-55.94,Paraguay,,3024,1600189926
Nacunday,-26.02,-54.7699,Paraguay,,1250,1600303466
Tshabong,-26.0095,22.4,Botswana,admin,9679,1072830877
Matola,-25.9696,32.46,Mozambique,,543907,1508768577
Piggs Peak,-25.961,31.247,Swaziland,,5750,1748284923
Maputo,-25.9553,32.5892,Mozambique,primary,1446000,1508074843
Castelli,-25.9495,-60.6166,Argentina,minor,9421,1032193694
Birdsville,-25.8996,139.3666,Australia,,283,1036830335
Mahikeng,-25.8652,25.6442,South Africa,admin,,1710965423
Mmabatho,-25.83,25.61,South Africa,,104428,1710524815
Monte Quemado,-25.7996,-62.8666,Argentina,minor,11387,1032834102
Lapa,-25.76,-49.73,Brazil,,25621,1076904800
Middelburg,-25.7596,29.47,South Africa,,154706,1710495632
Villarrica,-25.75,-56.4333,Paraguay,admin,41157,1600446518
Pretoria,-25.7069,28.2294,South Africa,primary,1338000,1710176249
Rustenburg,-25.65,27.24,South Africa,,165976,1710326039
Brits,-25.6296,27.78,South Africa,,122497,1710468143
Paraguari,-25.62,-57.16,Paraguay,admin,18881,1600581132
Sao Jose dos Pinhais,-25.57,-49.18,Brazil,,665063,1076174955
Maryborough,-25.5491,152.7209,Australia,,20678,1036205623
Paranagua,-25.5279,-48.5345,Brazil,,141013,1076265266
Foz do Iguacu,-25.5235,-54.53,Brazil,,440455,1076025805
Ciudad del Este,-25.5167,-54.6161,Paraguay,admin,320872,1600265252
Ita,-25.5096,-57.36,Paraguay,,41090,1600969782
Nelspruit,-25.4745,30.9703,South Africa,admin,,1710114438
Irati,-25.47,-50.66,Brazil,,45830,1076276918
Coronel Oviedo,-25.45,-56.44,Paraguay,admin,88101,1600075989
Windorah,-25.4332,142.6502,Australia,,158,1036272226
Curitiba,-25.42,-49.32,Brazil,admin,3084000,1076701712
Ypacarai,-25.41,-57.28,Paraguay,,30150,1600844536
Komatipoort,-25.4096,31.94,South Africa,,20508,1710137353
Taltal,-25.4,-70.47,Chile,,10018,1152265576
Caacupe,-25.387,-57.14,Paraguay,admin,21696,1600095784
Guarapuava,-25.38,-51.48,Brazil,,150850,1076415327
Eidsvold,-25.3662,151.1333,Australia,,459,1036235197
San Lorenzo,-25.34,-57.52,Paraguay,,500000,1600667303
Comandante Fontana,-25.3333,-59.6833,Argentina,minor,4277,1032594164
Aregua,-25.3125,-57.3847,Paraguay,admin,,1600141362
Asuncion,-25.2964,-57.6415,Paraguay,primary,1870000,1600057911
Hervey Bay,-25.2887,152.8409,Australia,,25114,1036833938
Yulara,-25.2405,130.9889,Australia,,930,1036245584
Lobatse,-25.2196,25.68,Botswana,admin,69804,1072740062
Villa Hayes,-25.09,-57.53,Paraguay,admin,15643,1600405064
Ponta Grossa,-25.09,-50.16,Brazil,,292177,1076716439
Joaquin V. Gonzalez,-25.0833,-64.1834,Argentina,minor,13376,1032690861
Arroyos y Esteros,-25.05,-57.09,Paraguay,,3055,1600827428
Xai-Xai,-25.04,33.64,Mozambique,admin,128805,1508689070
Tolanaro,-25.0268,46.99,Madagascar,minor,16818,1450217836
Androka,-25.0219,44.0749,Madagascar,,174,1450495720
Macia,-25.0195,33.09,Mozambique,,23156,1508558129
Kanye,-24.9696,25.34,Botswana,admin,46831,1072506645
Cascavel,-24.9596,-53.46,Brazil,,257172,1076509946
Theodore,-24.9495,150.0833,Australia,,246,1036423364
Carnarvon,-24.8998,113.6501,Australia,,7392,1036344209
Cerrillos,-24.8996,-65.4833,Argentina,minor,11498,1032917216
Bundaberg,-24.8791,152.3509,Australia,,52472,1036377333
Ramotswa,-24.8716,25.8699,Botswana,admin,,1072070629
Maltahohe,-24.84,16.94,Namibia,,2329,1516195038
Castro,-24.79,-50.01,Brazil,,42091,1076233349
Salta,-24.7834,-65.4166,Argentina,admin,512686,1032926124
Regedor Quissico,-24.7257,34.766,Mozambique,,1210,1508214411
Iguape,-24.72,-47.5699,Brazil,,23784,1076144584
Las Lomitas,-24.6996,-60.6,Argentina,,7683,1032153825
General Martin Miguel de Guemes,-24.6666,-65.05,Argentina,minor,19828,1032716507
Gaborone,-24.6463,25.9119,Botswana,primary,208411,1072756768
Mariental,-24.6196,17.9599,Namibia,admin,13380,1516582394
Jwaneng,-24.6017,24.7281,Botswana,admin,,1072118187
Registro,-24.49,-47.84,Brazil,,53273,1076533111
Villa del Rosario,-24.4196,-57.1,Paraguay,,5123,1600049206
Molepolole,-24.4,25.51,Botswana,admin,63248,1072560529
Biloela,-24.3936,150.4961,Australia,,6309,1036014905
Mochudi,-24.377,26.152,Botswana,admin,39700,1072876960
Bedourie,-24.3496,139.4666,Australia,,142,1036680924
Telemaco Borba,-24.33,-50.62,Brazil,,58880,1076867165
San Pedro,-24.2196,-64.87,Argentina,minor,58430,1032823743
Bekily,-24.2162,45.3166,Madagascar,,4286,1450655091
Lebowakgomo,-24.1996,29.5,South Africa,,33308,1710999076
San Salvador de Jujuy,-24.1833,-65.3,Argentina,admin,305891,1032815808
San Antonio de los Cobres,-24.1829,-66.35,Argentina,minor,4000,1032191344
Itanhaem,-24.18,-46.8,Brazil,,90385,1076274068
Lokwabe,-24.1696,21.83,Botswana,,1473,1072642304
San Pedro de Ycuamandiyu,-24.09,-57.08,Paraguay,admin,9360,1600189153
Guaira,-24.09,-54.27,Brazil,,36426,1076687981
Ygatimi,-24.0796,-55.5,Paraguay,,2809,1600339943
Panda,-24.0629,34.7303,Mozambique,,602,1508574997
Salto del Guaira,-24.0625,-54.3069,Paraguay,admin,,1600283545
Campo Mourao,-24.0496,-52.42,Brazil,,75401,1076799533
Itapeva,-23.9796,-48.88,Brazil,,62957,1076767110
Lehututu,-23.9696,21.87,Botswana,,1942,1072398415
Santos,-23.9537,-46.3329,Brazil,,1709000,1076033299
Ype Jhu,-23.91,-55.46,Paraguay,,600,1600827924
Ingeniero Guillermo N. Juarez,-23.9,-61.85,Argentina,minor,6453,1032585569
Polokwane,-23.89,29.45,South Africa,admin,220045,1710908010
Maxixe,-23.866,35.3886,Mozambique,,119868,1508002342
Inhambane,-23.858,35.3398,Mozambique,admin,115776,1508945412
Gladstone,-23.8533,151.2467,Australia,,30489,1036070755
Libertador General San Martin,-23.8195,-64.79,Argentina,minor,49267,1032649273
Tzaneen,-23.8195,30.17,South Africa,,67245,1710120942
Alice Springs,-23.701,133.88,Australia,,27710,1036830397
Santo Andre,-23.6528,-46.5278,Brazil,,662373,1076625886
Antofagasta,-23.65,-70.4,Chile,admin,309832,1152734289
Los Blancos,-23.5996,-62.6,Argentina,,1145,1032336288
Itapetininga,-23.59,-48.04,Brazil,,126243,1076425970
Barcaldine,-23.5662,145.2834,Australia,,1068,1036284609
Sao Paulo,-23.5587,-46.625,Brazil,admin,18845000,1076532519
Apucarana,-23.55,-51.47,Brazil,,107085,1076256387
Emerald,-23.5122,148.1673,Australia,,9398,1036124660
Sorocaba,-23.49,-47.47,Brazil,,563281,1076758708
Belen,-23.4695,-57.24,Paraguay,,11359,1600551990
Longreach,-23.4496,144.25,Australia,,2894,1036622618
Pozo Colorado,-23.43,-58.86,Paraguay,,2135,1600340660
Susques,-23.4167,-66.4833,Argentina,minor,1093,1032742255
Arapongas,-23.41,-51.43,Brazil,,97512,1076623771
Maringa,-23.4095,-51.93,Brazil,,328335,1076013378
Concepcion,-23.4064,-57.4344,Paraguay,admin,59118,1600557615
Newman,-23.3666,119.7333,Australia,,5138,1036587511
Rockhampton,-23.3639,150.52,Australia,,65850,1036768986
Toliara,-23.3568,43.69,Madagascar,admin,115319,1450593748
Tatui,-23.35,-47.86,Brazil,,93580,1076587962
Horqueta,-23.3396,-57.05,Paraguay,,16171,1600363376
Rehoboth,-23.3196,17.08,Namibia,,25219,1516928100
Londrina,-23.3,-51.18,Brazil,,520238,1076723241
Itu,-23.26,-47.3,Brazil,,320170,1076622789
Humahuaca,-23.2,-65.3499,Argentina,minor,11369,1032904210
Jundiai,-23.2,-46.88,Brazil,,505548,1076998392
Sao Jose dos Campos,-23.2,-45.8799,Brazil,,753769,1076783887
Toconao,-23.1829,-68.0166,Chile,,378,1152732862
Jacarezinho,-23.1599,-49.98,Brazil,,35090,1076955757
San Ramon de la Nueva Oran,-23.14,-64.32,Argentina,minor,74059,1032020207
Yeppoon,-23.1329,150.7567,Australia,,10769,1036180170
Avare,-23.11,-48.93,Brazil,,81285,1076118860
Mejillones,-23.1,-70.45,Chile,,2041,1152559509
Mahalapye,-23.1,26.82,Botswana,,50744,1072304817
Taubate,-23.0195,-45.56,Brazil,,403560,1076146252
Ourinhos,-22.97,-49.87,Brazil,,97799,1076551408
Walvisbaai,-22.9575,14.5053,Namibia,,52058,1516267898
Braganca Paulista,-22.95,-46.55,Brazil,,127676,1076245528
Thohoyandou,-22.95,30.48,South Africa,,269707,1710219075
Rio de Janeiro,-22.925,-43.225,Brazil,admin,11748000,1076887657
Pindamonhangaba,-22.92,-45.47,Brazil,,132218,1076937468
Campinas,-22.9,-47.1,Brazil,,2791000,1076145766
Niteroi,-22.9,-43.1,Brazil,,1500513,1076501425
Boulia,-22.8996,139.9,Australia,,600,1036512474
Cabo Frio,-22.89,-42.04,Brazil,,261721,1076449553
Botucatu,-22.8796,-48.45,Brazil,,113862,1076113865
Mapai,-22.8427,31.9631,Mozambique,,201,1508081096
Guaratingueta,-22.82,-45.19,Brazil,,203580,1076125544
Farafangana,-22.8166,47.8332,Madagascar,minor,24764,1450306255
Americana,-22.7499,-47.33,Brazil,,479472,1076922153
Iguacu,-22.74,-43.47,Brazil,,844583,1076339714
Bermejo,-22.7296,-64.35,Bolivia,,36544,1068060614
Abra Pampa,-22.7167,-65.7,Argentina,minor,4480,1032997640
Piracicaba,-22.71,-47.64,Brazil,,342209,1076166252
Tom Price,-22.6935,117.7931,Australia,,2723,1036464109
Swakopmund,-22.6689,14.535,Namibia,admin,29491,1516214290
Assis,-22.6596,-50.42,Brazil,,87471,1076782502
Puerto Pinasco,-22.64,-57.79,Paraguay,,500,1600670025
Windhoek,-22.57,17.0835,Namibia,primary,268132,1516802003
Barra Mansa,-22.56,-44.17,Brazil,,169386,1076686083
Palapye,-22.5596,27.13,Botswana,,30650,1072264514
Tartagal,-22.55,-63.81,Argentina,minor,60819,1032317391
Limeira,-22.5495,-47.4,Brazil,,289665,1076508566
Pedro Juan Caballero,-22.5446,-55.76,Paraguay,admin,102787,1600089732
Ponta Pora,-22.53,-55.73,Brazil,,94331,1076647935
Volta Redonda,-22.5196,-44.095,Brazil,,456362,1076343513
Petropolis,-22.5095,-43.2,Brazil,,286071,1076352504
Gobabis,-22.455,18.963,Namibia,admin,16321,1516128715
Calama,-22.45,-68.92,Chile,minor,143084,1152168074
Rinconada,-22.4329,-66.1666,Argentina,minor,6692,1032429190
Rio Claro,-22.41,-47.56,Brazil,,180147,1076411428
Ihosy,-22.3996,46.1167,Madagascar,minor,16990,1450600411
Winton,-22.3996,143.0333,Australia,,1157,1036031036
Serowe,-22.39,26.71,Botswana,admin,48573,1072708388
Macae,-22.38,-41.79,Brazil,,143029,1076074287
Oficina Maria Elena,-22.35,-69.67,Chile,,2370,1152876089
Filadelfia,-22.34,-60.03,Paraguay,admin,10470,1600948743
Musina,-22.34,30.03,South Africa,,20191,1710956370
Bauru,-22.33,-49.08,Brazil,,335024,1076905338
Chuquicamata,-22.32,-68.93,Chile,,11941,1152468996
Puerto La Victoria,-22.2896,-57.94,Paraguay,,5000,1600731282
Jau,-22.2896,-48.57,Brazil,,119206,1076312559
Noumea,-22.2625,166.4443,New Caledonia,,93060,1540958092
Nova Friburgo,-22.26,-42.54,Brazil,,171991,1076922983
Dourados,-22.23,-54.81,Brazil,,162202,1076544482
Garca,-22.22,-49.66,Brazil,,41302,1076270928
Pouso Alegre,-22.22,-45.94,Brazil,,115201,1076082333
Marilia,-22.21,-49.95,Brazil,,212218,1076042151
Beitbridge,-22.2096,29.99,Zimbabwe,,26459,1716929295
Bella Vista,-22.1296,-56.52,Paraguay,,16852,1600430147
Presidente Prudente,-22.12,-51.39,Brazil,,209502,1076239965
Tocopilla,-22.09,-70.19,Chile,minor,24460,1152050254
Villazon,-22.0796,-65.6,Bolivia,,37215,1068163517
Mariscal Estigarribia,-22.03,-60.61,Paraguay,,2500,1600781023
Sao Carlos,-22.02,-47.89,Brazil,,205035,1076673445
Moranbah,-22.0016,148.038,Australia,,10000,1036916453
Usakos,-21.9995,15.58,Namibia,,9147,1516430978
Vilankulo,-21.9995,35.3166,Mozambique,,177,1508379289
Piracununga,-21.99,-47.43,Brazil,,60413,1076467647
Sao Joao da Boa Vista,-21.98,-46.79,Brazil,,76540,1076459561
Okahandja,-21.9796,16.91,Namibia,,20879,1516123978
Selibe Phikwe,-21.9758,27.8347,Botswana,admin,,1072308184
Karibib,-21.939,15.853,Namibia,,6898,1516472073
Exmouth,-21.9311,114.1233,Australia,,1085,1036006022
Tupa,-21.93,-50.52,Brazil,,62035,1076738637
Pocos de Caldas,-21.78,-46.57,Brazil,,146588,1076336113
Juiz de Fora,-21.77,-43.375,Brazil,,470193,1076006144
Campos,-21.75,-41.32,Brazil,,387417,1076606365
Morombe,-21.7391,43.3657,Madagascar,,16727,1450018559
Ghanzi,-21.6996,21.64,Botswana,admin,6306,1072132620
Onslow,-21.6576,115.0963,Australia,,573,1036255184
Pannawonica,-21.6366,116.325,Australia,,686,1036914573
Maracaju,-21.61,-55.18,Brazil,,22690,1076548335
Massangena,-21.5373,32.9564,Mozambique,,650,1508224482
Entre Rios,-21.53,-64.19,Bolivia,,2685,1068494403
Leopoldina,-21.53,-42.64,Brazil,,46742,1076352077
Tarija,-21.5167,-64.75,Bolivia,admin,159269,1068356085
San Lorenzo,-21.4799,-64.77,Bolivia,,3000,1068000024
Jardim,-21.4799,-56.15,Brazil,,23780,1076077588
Novo Horizonte,-21.4596,-49.22,Brazil,,30158,1076842025
Tupiza,-21.4396,-65.72,Bolivia,,28766,1068328989
Omaruru,-21.436,15.951,Namibia,,11547,1516735467
Fianarantsoa,-21.4333,47.0833,Madagascar,admin,184184,1450070223
Manja,-21.4329,44.3333,Madagascar,,1536,1450949899
Penapolis,-21.41,-50.08,Brazil,,54477,1076587749
Miracema,-21.41,-42.2,Brazil,,26684,1076359191
Guaxupe,-21.29,-46.71,Brazil,,47889,1076985230
Avarua,-21.25,-159.75,Cook Islands,,5445,1184217570
Jabuticabal,-21.25,-48.33,Brazil,,69394,1076368201
Villamontes,-21.2496,-63.5,Bolivia,,18761,1068626988
Lavras,-21.2496,-45.01,Brazil,,81472,1076751259
Barbacena,-21.22,-43.77,Brazil,,122211,1076877003
Mananjary,-21.2167,48.3333,Madagascar,,27686,1450681595
Aracatuba,-21.21,-50.45,Brazil,,170024,1076630308
Mopipi,-21.1795,24.88,Botswana,,3301,1072326657
Ribeirao Preto,-21.17,-47.83,Brazil,,551267,1076524478
Francistown,-21.17,27.5,Botswana,admin,89979,1072124168
Mackay,-21.1439,149.15,Australia,,75922,1036507374
Catanduva,-21.14,-48.98,Brazil,,109612,1076772178
Nuku`alofa,-21.1385,-175.2206,Tonga,primary,42620,1776737461
Sao Joao del Rei,-21.13,-44.25,Brazil,,78592,1076559413
Muriae,-21.13,-42.39,Brazil,,91173,1076003733
Uba,-21.1196,-42.95,Brazil,,97828,1076389529
Fuerte Olimpo,-21.0696,-57.9,Paraguay,admin,2475,1600444658
Kone,-21.0667,164.8667,New Caledonia,admin,,1540397627
Chiredzi,-21.0496,31.66,Zimbabwe,,28205,1716636761
Saint-Benoit,-21.0335,55.7128,Reunion,,35310,1638823449
Lagunas,-20.9829,-69.6833,Chile,,10,1152360178
Gwanda,-20.9396,29.01,Zimbabwe,admin,14450,1716612305
Andradina,-20.9096,-51.3799,Brazil,,52406,1076417183
We,-20.9,167.2667,New Caledonia,admin,,1540672599
Batatais,-20.89,-47.59,Brazil,,51976,1076581214
Campo Belo,-20.8896,-45.28,Brazil,,47491,1076477943
Saint-Denis,-20.8789,55.4481,Reunion,admin,190047,1638024662
Cachoeiro de Itapemirim,-20.85,-41.13,Brazil,,187019,1076536175
Hughenden,-20.85,144.2,Australia,,421,1036738932
Sao Jose do Rio Preto,-20.7996,-49.39,Brazil,,374699,1076760827
Tres Lagoas,-20.79,-51.72,Brazil,,78712,1076281782
Roebourne,-20.7829,117.1333,Australia,,19260,1036752479
Villa Martin Colchak,-20.7666,-67.7833,Bolivia,,10,1068713966
Karratha,-20.7304,116.87,Australia,,16796,1036951388
Mount Isa,-20.7239,139.49,Australia,,33200,1036386100
Richmond,-20.7163,143.1333,Australia,,296,1036156498
Passos,-20.71,-46.61,Brazil,,98752,1076782492
Cloncurry,-20.7,140.5,Australia,,1202,1036672657
Conselheiro Lafaiete,-20.67,-43.79,Brazil,,111596,1076456009
Camargo,-20.6396,-65.21,Bolivia,,4715,1068344721
Masunga,-20.6245,27.4488,Botswana,admin,,1072609074
Sowa Town,-20.5636,26.2244,Botswana,admin,,1072487689
Barretos,-20.55,-48.58,Brazil,,101220,1076042195
Franca,-20.53,-47.39,Brazil,,305041,1076740256
General Eugenio A. Garay,-20.52,-62.21,Paraguay,,972,1600467772
Plumtree,-20.4795,27.82,Zimbabwe,,2148,1716916272
Aquidauana,-20.4696,-55.79,Brazil,,40803,1076120417
Uyuni,-20.46,-66.83,Bolivia,,12939,1068695031
Formiga,-20.46,-45.43,Brazil,,56404,1076994550
Otjiwarongo,-20.4595,16.64,Namibia,admin,24815,1516719545
Espungabera,-20.4501,32.77,Mozambique,,393,1508256538
Cuevo,-20.45,-63.53,Bolivia,,953,1068137787
Campo Grande,-20.45,-54.6166,Brazil,admin,778000,1076660445
Proserpine,-20.4162,148.5835,Australia,,3976,1036150859
Ponte Nova,-20.4096,-42.9,Brazil,,48187,1076567178
Vila Velha,-20.3676,-40.318,Brazil,,1209091,1076404077
Zvishavane,-20.3296,30.05,Zimbabwe,,35896,1716895095
Vitoria,-20.324,-40.366,Brazil,admin,1704000,1076376829
Curepipe,-20.3162,57.5166,Mauritius,,299975,1480343099
Port Hedland,-20.3104,118.606,Australia,,14288,1036509606
Morondava,-20.2833,44.2833,Madagascar,minor,36803,1450721607
Pozo Almonte,-20.2696,-69.8,Chile,minor,10830,1152924094
Fernandopolis,-20.2696,-50.26,Brazil,,61931,1076205721
Iquique,-20.25,-70.13,Chile,admin,227499,1152234625
Nata,-20.2095,26.19,Botswana,,4794,1072462404
Bulawayo,-20.17,28.58,Zimbabwe,admin,699385,1716032632
Port Louis,-20.1666,57.5,Mauritius,primary,595491,1480131261
Tsau,-20.1596,22.46,Botswana,,1409,1072736607
Divinopolis,-20.1495,-44.9,Brazil,,193832,1076716552
Outjo,-20.1095,16.14,Namibia,,6557,1516062528
Charters Towers,-20.0809,146.2587,Australia,,9573,1036733088
Itauna,-20.06,-44.57,Brazil,,77400,1076321811
Masvingo,-20.0596,30.82,Zimbabwe,admin,76311,1716049475
Camiri,-20.05,-63.52,Bolivia,,27961,1068205873
Frutal,-20.03,-48.94,Brazil,,40931,1076112857
Bowen,-20.0013,148.2087,Australia,,10983,1036979225
Maun,-19.9896,23.42,Botswana,admin,49945,1072985345
Nova Lima,-19.98,-43.85,Brazil,,88399,1076876220
Camooweal,-19.9167,138.1167,Australia,,187,1036815011
Capitan Pablo Lagerenza,-19.9161,-60.7833,Paraguay,,1200,1600527430
Belo Horizonte,-19.915,-43.915,Brazil,admin,5575000,1076967355
Antsirabe,-19.85,47.0333,Madagascar,minor,307921,1450791699
Llica,-19.8496,-68.25,Bolivia,,553,1068053822
Beira,-19.82,34.87,Mozambique,admin,530604,1508407369
Charagua,-19.7996,-63.22,Bolivia,,3025,1068232771
Caratinga,-19.79,-42.14,Brazil,,60066,1076504581
Uberaba,-19.78,-47.95,Brazil,,260843,1076230331
Iturama,-19.73,-50.2,Brazil,,29805,1076049375
Paranaiba,-19.6796,-51.2,Brazil,,32217,1076355277
Nokaneng,-19.6696,22.27,Botswana,,1763,1072707427
Otavi,-19.64,17.342,Namibia,,4562,1516874756
Dondo,-19.6196,34.73,Mozambique,,78648,1508741848
Araxa,-19.5796,-46.95,Brazil,,82595,1076259402
Ayr,-19.5702,147.3995,Australia,,9078,1036228772
Potosi,-19.5696,-65.75,Bolivia,admin,179901,1068933987
Grootfontein,-19.5666,18.1166,Namibia,,24099,1516286878
Betanzos,-19.56,-65.45,Bolivia,,4847,1068258629
Isangel,-19.5417,169.2817,Vanuatu,admin,,1548941443
Miandrivazo,-19.5162,45.4666,Madagascar,,20631,1450332104
Ipatinga,-19.4796,-42.52,Brazil,,407894,1076484921
Gweru,-19.45,29.82,Zimbabwe,admin,183358,1716621481
Sete Lagoas,-19.4496,-44.25,Brazil,,201334,1076863850
Linhares,-19.39,-40.05,Brazil,,105075,1076355611
Padilla,-19.2996,-64.31,Bolivia,,2920,1068422501
Townsville,-19.25,146.77,Australia,,138954,1036500020
Tsumeb,-19.24,17.71,Namibia,,14959,1516619412
Tarabuco,-19.18,-64.9199,Bolivia,,2428,1068481915
Chimoio,-19.12,33.47,Mozambique,admin,256936,1508460246
Cuya,-19.1167,-70.1333,Chile,,20,1152944039
Sucre,-19.041,-65.2595,Bolivia,primary,224838,1068823873
Sabaya,-19.0163,-68.3833,Bolivia,,573,1068184161
Corumba,-19.016,-57.65,Brazil,,96520,1076131775
Ituiutaba,-18.97,-49.46,Brazil,,85345,1076873111
Mutare,-18.97,32.65,Zimbabwe,admin,249365,1716060405
Manica,-18.9696,32.88,Mozambique,,4000,1508848017
Puerto Suarez,-18.9496,-57.85,Bolivia,,22000,1068099903
Lupane,-18.9315,27.807,Zimbabwe,admin,,1716206606
Kwekwe,-18.9296,29.8,Zimbabwe,,99149,1716327793
Antananarivo,-18.9166,47.5166,Madagascar,primary,1697000,1450978461
Uberlandia,-18.9,-48.28,Brazil,,563536,1076495001
Challapata,-18.8996,-66.78,Bolivia,,9114,1068352309
Governador Valadares,-18.87,-41.97,Brazil,,250878,1076271003
Guanhaes,-18.78,-42.95,Brazil,,23727,1076235295
Curvelo,-18.7596,-44.43,Brazil,,63954,1076253887
Sao Mateus,-18.7296,-39.86,Brazil,,77117,1076829621
Neiafu,-18.6496,-173.9833,Tonga,,7391,1776829745
Ingham,-18.6496,146.1666,Australia,,6127,1036238542
Araguari,-18.64,-48.2,Brazil,,96565,1076402865
Arica,-18.5,-70.29,Chile,admin,185999,1152531089
Vallegrande,-18.4896,-64.11,Bolivia,,8422,1068162149
Uncia,-18.47,-66.57,Bolivia,,4723,1068104554
Llallagua,-18.42,-66.64,Bolivia,,28069,1068159509
Itumbiara,-18.3996,-49.21,Brazil,,79582,1076693747
Hwange,-18.37,26.5,Zimbabwe,,33989,1716416748
Omuthiya,-18.3611,16.5814,Namibia,admin,,1516000004
Kadoma,-18.33,29.9099,Zimbabwe,,79174,1716398005
Robore,-18.3295,-59.76,Bolivia,,10036,1068498462
Georgetown,-18.3,143.5333,Australia,,818,1036412066
Muhembo,-18.2996,21.8,Botswana,,757,1072113578
Halls Creek,-18.2667,127.7667,Australia,,1209,1036444511
Diamantina,-18.24,-43.61,Brazil,,37343,1076865092
Aiquile,-18.1895,-65.18,Bolivia,,8224,1068121487
Marondera,-18.1853,31.5519,Zimbabwe,admin,,1716375676
Toamasina,-18.1818,49.405,Madagascar,admin,210226,1450540529
Samaipata,-18.18,-63.77,Bolivia,,2926,1068681645
Catalao,-18.18,-47.95,Brazil,,63544,1076169871
Suva,-18.133,178.4417,Fiji,primary,175399,1242615095
Maintirano,-18.0666,44.0167,Madagascar,minor,5925,1450625023
Opuwo,-18.0596,13.82,Namibia,admin,4857,1516958242
Mucusso,-18.0195,21.43,Angola,,100,1024035453
Tacna,-18,-70.25,Peru,admin,280098,1604388134
Chitungwiza,-18,31.1,Zimbabwe,,340360,1716688236
Oruro,-17.98,-67.13,Bolivia,admin,246501,1068271533
Broome,-17.9618,122.2308,Australia,,13218,1036047905
Victoria Falls,-17.9296,25.84,Zimbabwe,,35761,1716149447
Rundu,-17.92,19.7499,Namibia,admin,58172,1516885937
Nova Vicosa,-17.88,-39.37,Brazil,,55980,1076116919
Quelimane,-17.88,36.89,Mozambique,admin,188964,1508396687
Jatai,-17.8796,-51.75,Brazil,,76547,1076908960
Teofilo Otoni,-17.87,-41.5,Brazil,,101170,1076465745
Livingstone,-17.86,25.86,Zambia,,165480,1894634581
San Jose de Chiquitos,-17.85,-60.78,Bolivia,,9211,1068082794
Nanuque,-17.84,-40.35,Brazil,,37824,1076083471
Ambatondrazaka,-17.8329,48.4167,Madagascar,minor,43134,1450068349
Rio Verde,-17.8196,-50.93,Brazil,,48318,1076844683
Harare,-17.8178,31.0447,Zimbabwe,primary,1572000,1716196799
Kasane,-17.8096,25.15,Botswana,admin,9250,1072217316
Santa Cruz de la Sierra,-17.8,-63.1667,Bolivia,admin,,1068129363
Nadi,-17.7996,177.4166,Fiji,,42284,1242357822
Oshakati,-17.7833,15.6833,Namibia,admin,,1516866759
Ongwediva,-17.78,15.77,Namibia,,25032,1516962966
Puerto Quijarro,-17.7796,-57.77,Bolivia,,10392,1068582123
Santa Cruz,-17.7539,-63.226,Bolivia,,2102998,1068002564
Port-Vila,-17.7334,168.3166,Vanuatu,primary,44040,1548805075
Morrinhos,-17.73,-49.11,Brazil,,34143,1076391164
Burketown,-17.7161,139.5666,Australia,,200,1036956849
Ilo,-17.64,-71.34,Peru,,53476,1604886582
Nkurenkuru,-17.6167,18.6,Namibia,admin,,1516271813
Lautoka,-17.6161,177.4666,Fiji,,55894,1242457077
Nicoadala,-17.6077,36.8197,Mozambique,,6945,1508484170
Charana,-17.5996,-69.4666,Bolivia,,197,1068774768
Cliza,-17.59,-65.93,Bolivia,,15816,1068759245
Mineiros,-17.5695,-52.56,Brazil,,38951,1076000916
Punata,-17.55,-65.84,Bolivia,,26323,1068639665
Papeete,-17.5334,-149.5667,French Polynesia,,131695,1258907380
Innisfail,-17.5313,146.0387,Australia,,10143,1036930229
Mazoe,-17.5196,30.97,Zimbabwe,,9966,1716608716
Outapi,-17.5,14.9833,Namibia,admin,,1516820698
Katima Mulilo,-17.4996,24.26,Namibia,admin,25027,1516068788
Karumba,-17.4833,140.8334,Australia,,173,1036926106
Sesheke,-17.4695,24.3,Zambia,,20149,1894753767
Eenhana,-17.4667,16.3333,Namibia,admin,,1516685856
Cochabamba,-17.41,-66.17,Bolivia,admin,1000000,1068793894
Quillacollo,-17.4,-66.28,Bolivia,,227052,1068265899
San Carlos,-17.4,-63.73,Bolivia,,6353,1068028866
Oshikango,-17.3995,15.88,Namibia,,12423,1516819374
Luiana,-17.3695,23,Angola,,150,1024455938
Portachuelo,-17.36,-63.4,Bolivia,,11485,1068477207
Chinhoyi,-17.3596,30.18,Zimbabwe,admin,61739,1716523245
Montero,-17.3496,-63.26,Bolivia,,88616,1068836323
Sicasica,-17.33,-67.73,Bolivia,,1006,1068066667
Pirapora,-17.33,-44.93,Brazil,,60164,1076124834
Chitado,-17.3196,13.92,Angola,,500,1024158837
Shamva,-17.3196,31.57,Zimbabwe,,10317,1716210091
Bindura,-17.3019,31.3306,Zimbabwe,admin,,1716331687
Pires do Rio,-17.2995,-48.28,Brazil,,24822,1076357135
Atherton,-17.2703,145.4694,Australia,,6959,1036456869
Paracatu,-17.1996,-46.87,Brazil,,70753,1076347421
Moquegua,-17.19,-70.94,Peru,admin,54517,1604230427
Corocoro,-17.1696,-68.45,Bolivia,,1884,1068830457
Bocaiuva,-17.1096,-43.81,Brazil,,32114,1076639320
Ondjiva,-17.0696,15.73,Angola,admin,10169,1024504085
Itamaraju,-17.0396,-39.5299,Brazil,,47628,1076241282
Mollendo,-17.02,-72.02,Peru,,49033,1604134214
Quime,-16.98,-67.22,Bolivia,,4045,1068690050
Nsanje,-16.9167,35.2667,Malawi,admin,21774,1454428076
Chiramba,-16.8921,34.6559,Mozambique,,556,1508392455
Cairns,-16.8878,145.7633,Australia,,154225,1036016939
Puerto Villarroel,-16.87,-64.78,Bolivia,,1778,1068957347
Aracuai,-16.8596,-42.0699,Brazil,,22005,1076501078
Mocuba,-16.8496,38.26,Mozambique,,68984,1508699932
Karoi,-16.8196,29.68,Zimbabwe,,25030,1716627056
Choma,-16.8095,26.97,Zambia,admin,46746,1894419971
San Rafael,-16.7795,-60.68,Bolivia,,1201,1068405265
Cristalina,-16.77,-47.61,Brazil,,36531,1076014539
Besalampy,-16.7495,44.4833,Madagascar,,1022,1450740445
Xangongo,-16.74,14.97,Angola,,447,1024323582
Goiania,-16.72,-49.3,Brazil,admin,2022000,1076034054
Montes Claros,-16.72,-43.86,Brazil,,332379,1076113275
Viacha,-16.65,-68.3,Bolivia,,34776,1068833754
Trindade,-16.65,-49.5,Brazil,,97521,1076815881
Camana,-16.6196,-72.72,Peru,,20956,1604379091
Desaguadero,-16.5646,-69.045,Peru,,5329,1604523021
Chiromo,-16.55,35.1332,Malawi,,25235,1454972056
Kariba,-16.5296,28.8,Zimbabwe,,25531,1716563536
La Paz,-16.498,-68.15,Bolivia,primary,1590000,1068000064
Port Douglas,-16.4846,145.4587,Australia,,3000,1036053723
Rondonopolis,-16.4695,-54.64,Brazil,,152912,1076627175
Ipora,-16.45,-51.13,Brazil,,28254,1076392298
Porto Seguro,-16.4296,-39.08,Brazil,,123173,1076932180
Arequipa,-16.42,-71.53,Peru,admin,815000,1604723954
Labasa,-16.4166,179.3833,Fiji,,24187,1242740801
San Ignacio de Velasco,-16.3696,-60.96,Bolivia,,25391,1068082737
San Matias,-16.36,-58.42,Bolivia,,6352,1068402765
Inhumas,-16.36,-49.5,Brazil,,44058,1076130930
Anapolis,-16.3196,-48.96,Brazil,,319587,1076208869
San Javier,-16.2896,-62.5,Bolivia,,4210,1068099078
Santa Cruz Cabralia,-16.28,-39.03,Brazil,,19545,1076118882
Antonio Enes,-16.23,39.91,Mozambique,,57835,1508591443
Coroico,-16.1896,-67.72,Bolivia,,2361,1068106383
Almenara,-16.17,-40.7,Brazil,,29333,1076953924
Tete,-16.17,33.58,Mozambique,admin,129316,1508476900
Senanga,-16.1196,23.27,Zambia,,10005,1894742251
Lakatoro,-16.1056,167.4189,Vanuatu,admin,,1548761183
Moatize,-16.0995,33.95,Mozambique,,42000,1508074512
Marovoay,-16.0995,46.6333,Madagascar,,31253,1450283819
Achacachi,-16.0833,-68.6666,Bolivia,,8447,1068370700
Ilave,-16.0796,-69.67,Peru,,16033,1604815838
Thyolo,-16.0703,35.1471,Malawi,admin,,1454464861
Caceres,-16.05,-57.51,Brazil,,85274,1076422654
Chikwawa,-16.042,34.8019,Malawi,admin,,1454343925
Mulanje,-16.0333,35.5,Malawi,admin,16483,1454459215
Itaberai,-16.02,-49.81,Brazil,,22129,1076044452
Barra do Garcas,-15.8796,-52.26,Brazil,,52398,1076425403
Mazabuka,-15.86,27.76,Zambia,,64006,1894390715
Puno,-15.8329,-70.0333,Peru,admin,116552,1604227042
Mandritsara,-15.8328,48.8166,Madagascar,,9705,1450981137
Phalombe,-15.8064,35.6507,Malawi,admin,,1454510180
Tombua,-15.8,11.86,Angola,,40000,1024489244
Janauba,-15.7996,-43.31,Brazil,,56572,1076293809
Sorata,-15.79,-68.6601,Bolivia,,2190,1068157921
Blantyre,-15.79,34.9899,Malawi,admin,584877,1454145012
Mavinga,-15.7895,20.36,Angola,,30000,1024585059
Brasilia,-15.7833,-47.9161,Brazil,primary,3716996,1076144436
Kafue,-15.78,28.18,Zambia,,47554,1894930695
Kununurra,-15.7666,128.7333,Australia,,5679,1036556231
Chibemba,-15.7496,14.08,Angola,,1502,1024009942
Chiradzulu,-15.7,35.1833,Malawi,admin,1580,1454413713
Ascension,-15.6996,-63.08,Bolivia,,14429,1068811738
Mahajanga,-15.67,46.345,Madagascar,admin,154657,1450421961
Varzea Grande,-15.65,-56.14,Brazil,,249752,1076359879
Canavieiras,-15.64,-38.96,Brazil,,26375,1076258532
Mwanza,-15.6167,34.5167,Malawi,admin,11379,1454451365
Cuiaba,-15.5696,-56.085,Brazil,admin,806000,1076112309
Formosa,-15.5395,-47.34,Brazil,,81232,1076601172
Luganville,-15.5126,167.1766,Vanuatu,admin,13397,1548569362
Juliaca,-15.5,-70.14,Peru,,245675,1604174464
Puerto Acosta,-15.4996,-69.1667,Bolivia,,1123,1068206449
Januaria,-15.48,-44.37,Brazil,,34811,1076924780
Putina,-15.47,-69.43,Peru,,8118,1604856559
Maroantsetra,-15.4333,49.7333,Madagascar,,38046,1450485257
Lusaka,-15.4166,28.2833,Zambia,primary,1328000,1894157390
Neno,-15.3981,34.6534,Malawi,admin,,1454089137
Zomba,-15.39,35.31,Malawi,admin,80932,1454072947
Wyndham,-15.374,128.3601,Australia,,800,1036474435
Goianesia,-15.3096,-49.13,Brazil,,47883,1076636505
Ceres,-15.3033,-49.6052,Brazil,,18759,1076087042
Saratamata,-15.2869,167.9906,Vanuatu,admin,,1548907051
Mongu,-15.2796,23.12,Zambia,admin,52534,1894761291
Itapetinga,-15.25,-40.25,Brazil,,59721,1076005350
Itambe,-15.2396,-40.63,Brazil,,23558,1076307665
Pontes e Lacerda,-15.2196,-59.35,Brazil,,29381,1076490162
Namibe,-15.19,12.16,Angola,admin,132900,1024785067
Chibia,-15.1896,13.69,Angola,,1411,1024017930
Ligonha,-15.1757,37.74,Mozambique,,3500,1508105140
Cuito Cuanavale,-15.1596,19.17,Angola,,149,1024195525
Nampula,-15.136,39.293,Mozambique,admin,388526,1508958445
Barra do Bugres,-15.0696,-57.19,Brazil,,31311,1076717726
Ilha de Mocambique,-15.0399,40.6822,Mozambique,,54315,1508063712
Coracora,-15.0196,-73.79,Peru,,7420,1604800656
Vila Bela da Santissima Trindade,-15,-59.95,Brazil,,1612,1076493823
Kalabo,-14.9896,22.68,Zambia,,7731,1894966417
Balaka,-14.9889,34.9591,Malawi,admin,,1454732693
Mumbwa,-14.9796,27.07,Zambia,,19086,1894568812
Machinga,-14.9667,35.5167,Malawi,admin,1418,1454566785
Lubango,-14.9167,13.5,Angola,admin,,1024669127
Lubango,-14.91,13.49,Angola,,125632,1024906558
Antalaha,-14.8833,50.2833,Madagascar,,47224,1450649394
Ayaviri,-14.8796,-70.6,Peru,,19310,1604922172
Antsohihy,-14.8661,47.9834,Madagascar,minor,21290,1450240411
Vitoria da Conquista,-14.85,-40.84,Brazil,,308204,1076812020
Trinidad,-14.8334,-64.9,Bolivia,admin,84259,1068929509
Nazca,-14.83,-74.94,Peru,,23556,1604291738
Quipungo,-14.8295,14.55,Angola,,186,1024929138
San Borja,-14.8196,-66.85,Bolivia,,19640,1068118050
Ntcheu,-14.8167,34.6333,Malawi,admin,10445,1454008976
Itabuna,-14.7896,-39.28,Brazil,,221938,1076003792
Cuamba,-14.7896,36.54,Mozambique,,73268,1508862081
Ilheus,-14.78,-39.05,Brazil,,230622,1076021121
Kaoma,-14.7796,24.8,Zambia,,14212,1894846267
Apolo,-14.7196,-68.42,Bolivia,,4189,1068238601
Puquio,-14.7,-74.13,Peru,,10491,1604629997
Menongue,-14.6666,17.7,Angola,admin,13030,1024725650
Nyimba,-14.5495,30.81,Zambia,,1336,1894088472
Cidade de Nacala,-14.5186,40.715,Mozambique,,224795,1508752825
Niquelandia,-14.4696,-48.47,Brazil,,27541,1076682103
Katherine,-14.4666,132.2666,Australia,,10141,1036323110
Santo Tomas,-14.46,-72.08,Peru,,4134,1604893836
Rurrenabaque,-14.46,-67.56,Bolivia,,11749,1068557134
Mangochi,-14.4596,35.27,Malawi,admin,97711,1454766726
Kabwe,-14.44,28.45,Zambia,admin,188979,1894711746
Lukulu,-14.3896,23.24,Zambia,,3349,1894281443
Dedza,-14.3667,34.3333,Malawi,admin,15608,1454412462
Reyes,-14.3096,-67.37,Bolivia,,7376,1068609630
Ubaitaba,-14.3,-39.33,Brazil,,28375,1076532739
Leava,-14.2933,-178.1583,Wallis And Futuna,admin,,1876731744
Sicuani,-14.2896,-71.23,Peru,,33575,1604929096
Pago Pago,-14.274,-170.7046,American Samoa,primary,12576,1016976740
Sambava,-14.2662,50.1666,Madagascar,minor,43465,1450004590
Guanambi,-14.2296,-42.79,Brazil,,58877,1076791780
Brumado,-14.21,-41.67,Brazil,,41989,1076669684
Santiago,-14.1896,-75.74,Peru,,10449,1604889626
Ica,-14.068,-75.7255,Peru,admin,279420,1604607907
Lilongwe,-13.9833,33.7833,Malawi,primary,646750,1454688499
Kapiri Mposhi,-13.9696,28.66,Zambia,,37942,1894676779
Samamea,-13.9338,-171.5312,Samoa,admin,,1882468874
Sola,-13.8761,167.5517,Vanuatu,admin,,1548600754
Lufilufi,-13.8745,-171.5986,Samoa,admin,,1882092632
Jequie,-13.85,-40.08,Brazil,,135574,1076558785
Apia,-13.8415,-171.7386,Samoa,primary,61916,1882489296
Mulifanua,-13.8318,-172.036,Samoa,admin,,1882029963
Leulumoega,-13.823,-171.9613,Samoa,admin,,1882782502
Pine Creek,-13.8162,131.8167,Australia,,665,1036858004
Mchinji,-13.8,32.9,Malawi,admin,18305,1454607053
Afega,-13.7973,-171.8531,Samoa,admin,,1882284139
Salima,-13.7829,34.4333,Malawi,admin,71181,1454747771
Satupa`itea,-13.7659,-172.3269,Samoa,admin,,1882940042
Santa Ana de Yacuma,-13.76,-65.58,Bolivia,,234478,1068925682
Vailoa,-13.7555,-172.307,Samoa,admin,,1882047846
Pisco,-13.71,-76.22,Peru,,81207,1604438126
Cangamba,-13.6996,19.86,Angola,,1307,1024036836
Piso Firme,-13.683,-61.8666,Bolivia,,72,1068400874
Ambanja,-13.6829,48.45,Madagascar,,30621,1450987919
Safotulafai,-13.6715,-172.1777,Samoa,admin,,1882524892
Dowa,-13.6532,33.9385,Malawi,admin,,1454644071
Abancay,-13.6396,-72.89,Peru,admin,55111,1604782074
Chipata,-13.6296,32.64,Zambia,admin,85963,1894816262
Baures,-13.58,-63.5801,Bolivia,,2422,1068657733
Zambezi,-13.54,23.1099,Zambia,,7074,1894660797
Jaguaquara,-13.53,-39.97,Brazil,,41498,1076420862
Cusco,-13.525,-71.9722,Peru,admin,361182,1604162901
Asau,-13.5196,-172.6378,Samoa,admin,,1882504626
Kasempa,-13.4596,25.82,Zambia,,5622,1894152710
Safotu,-13.4513,-172.4018,Samoa,admin,,1882879383
Saleaula,-13.4489,-172.3352,Samoa,admin,,1882605280
Chincha Alta,-13.4196,-76.14,Peru,,153076,1604035626
Andoany,-13.4,48.2666,Madagascar,,22680,1450689047
Santa Maria da Vitoria,-13.39,-44.21,Brazil,,23488,1076607443
Ntchisi,-13.3753,34.0036,Malawi,admin,,1454004377
Valenca,-13.3596,-39.08,Brazil,,63231,1076455406
Urubamba,-13.3042,-72.1166,Peru,,7540,1604753575
Lichinga,-13.3,35.24,Mozambique,admin,109839,1508041628
San Ramon,-13.2896,-64.71,Bolivia,,6490,1068370064
Magdalena,-13.2601,-64.0528,Bolivia,,3445,1068699781
Bom Jesus da Lapa,-13.2495,-43.44,Brazil,,40691,1076439517
Adelaide River,-13.2495,131.1,Australia,,237,1036136750
Marrupa,-13.1984,37.4995,Mozambique,,8762,1508890063
Ayacucho,-13.175,-74.22,Peru,admin,166314,1604300430
Luanshya,-13.1333,28.4,Zambia,,151993,1894410334
Montepuez,-13.1196,39,Mozambique,,72279,1508552201
Cubal,-13.0396,14.24,Angola,,4837,1024580158
Kasungu,-13.0364,33.4822,Malawi,admin,,1454117674
Ndola,-12.9999,28.65,Zambia,admin,396339,1894032745
Pemba,-12.983,40.5323,Mozambique,admin,110643,1508872233
Salvador,-12.97,-38.48,Brazil,admin,3484000,1076923789
Huanta,-12.9496,-74.25,Peru,,18627,1604179024
Nkhotakota,-12.9163,34.3,Malawi,admin,59854,1454281420
Kitwe,-12.81,28.22,Zambia,,404901,1894321752
Huancavelica,-12.79,-74.99,Peru,admin,44388,1604876709
Mamoudzou,-12.7871,45.275,Mayotte,admin,32057,1175099654
Huambo,-12.75,15.76,Angola,admin,1100000,1024079828
Vilhena,-12.7166,-60.1166,Brazil,,63231,1076196581
Weipa,-12.6666,141.8666,Australia,,2830,1036501067
Puerto Maldonado,-12.6,-69.1833,Peru,admin,67155,1604871130
Benguela,-12.5783,13.4072,Angola,admin,151226,1024141961
Mufulira,-12.55,28.26,Zambia,,153624,1894907880
Chingola,-12.5396,27.85,Zambia,,182015,1894202007
McMinns Lagoon,-12.5329,131.05,Australia,,5025,1036673821
Chilca,-12.5196,-76.74,Peru,,12884,1604361895
Itaberaba,-12.5196,-40.3,Brazil,,47301,1076160849
Puerto Heath,-12.4996,-68.6666,Bolivia,,10,1068996459
Alvorada,-12.47,-49.082,Brazil,,10232,1076121080
Darwin,-12.4254,130.85,Australia,admin,93080,1036497565
Principe da Beira,-12.4167,-64.4166,Brazil,,956,1076482734
Cuito,-12.38,16.94,Angola,admin,114286,1024939858
Lobito,-12.37,13.5412,Angola,,207932,1024128946
Chililabombwe,-12.3696,27.82,Zambia,,82068,1894950283
Lundazi,-12.2895,33.17,Zambia,,11635,1894277247
Fomboni,-12.2842,43.7428,Comoros,admin,,1174539766
Antsiranana,-12.2765,49.3115,Madagascar,admin,82937,1450106928
Feira de Santana,-12.25,-38.97,Brazil,,481911,1076892244
Solwezi,-12.1796,26.4,Zambia,admin,65000,1894777820
Mutsamudu,-12.1658,44.3983,Comoros,admin,,1174036583
Barreiras,-12.14,-45,Brazil,,158292,1076854674
Alagoinhas,-12.14,-38.43,Brazil,,124070,1076155953
Huancayo,-12.08,-75.2,Peru,admin,412733,1604249985
Callao,-12.07,-77.135,Peru,admin,876877,1604422141
Lima,-12.048,-77.0501,Peru,primary,8012000,1604728603
Camacupa,-12.0196,17.47,Angola,,19828,1024037086
Chosica,-11.93,-76.71,Peru,,88606,1604040866
Mzimba,-11.9,33.6,Malawi,admin,19308,1454007077
Cazombo,-11.8896,22.9,Angola,,298,1024334740
Sinop,-11.85,-55.46,Brazil,,8961,1076876295
Mpika,-11.83,31.46,Zambia,,28445,1894224372
Jauja,-11.7996,-75.5,Peru,,21057,1604948232
Luena,-11.79,19.9,Angola,admin,21115,1024283760
Kipushi,-11.7596,27.25,Congo (Kinshasa),,113347,1180810333
Mwinilunga,-11.7396,24.44,Zambia,,13798,1894210586
Rolim de Moura,-11.7302,-61.7806,Brazil,,24516,1076556836
Gurupi,-11.7196,-49.06,Brazil,,64789,1076649238
Moroni,-11.7042,43.2402,Comoros,primary,128698,1174793581
Lubumbashi,-11.68,27.48,Congo (Kinshasa),admin,1352000,1180506234
Serrinha,-11.6496,-39.01,Brazil,,56829,1076832200
Pimenta Bueno,-11.64,-61.21,Brazil,,25762,1076267246
Nkhata Bay,-11.5996,34.3,Malawi,admin,22108,1454517378
Chancay,-11.5596,-77.27,Peru,,26958,1604882367
Tigoa,-11.5531,160.0647,Solomon Islands,admin,,1090423471
Forbe Oroya,-11.52,-75.94,Peru,,33345,1604666304
Mzuzu,-11.46,34.02,Malawi,,110201,1454525586
Tarma,-11.41,-75.73,Peru,,51350,1604810508
Uacu Cungo,-11.3595,15.12,Angola,,12069,1024677127
Calenga,-11.3196,16.2,Angola,,531,1024822780
Mocimboa,-11.3196,40.35,Mozambique,,27909,1508815299
Irece,-11.3,-41.87,Brazil,,63626,1076348562
Mbamba Bay,-11.2829,34.7666,Tanzania,,8997,1834067294
Estancia,-11.2696,-37.45,Brazil,,55654,1076069381
Satipo,-11.26,-74.69,Peru,,15532,1604355080
Sumbe,-11.21,13.85,Angola,admin,33277,1024297937
Mansa,-11.2,28.89,Zambia,admin,42277,1894038366
Junin,-11.1496,-76.01,Peru,,15320,1604997443
San Ramon,-11.1296,-75.34,Peru,,14708,1604957373
Huacho,-11.11,-77.6199,Peru,admin,80474,1604316784
Tunduru,-11.0896,37.37,Tanzania,,600,1834030694
Huaura,-11.06,-77.6,Peru,,40400,1604503366
Cobija,-11.0333,-68.7333,Bolivia,admin,44437,1068395023
Rumphi,-11.0195,33.8546,Malawi,admin,,1454325221
Riberalta,-10.983,-66.1,Bolivia,,74014,1068951603
Likasi,-10.97,26.78,Congo (Kinshasa),,434408,1180978192
Tucano,-10.9696,-38.79,Brazil,,31203,1076227914
Aracaju,-10.9,-37.12,Brazil,admin,685356,1076527830
Kambove,-10.8696,26.6,Congo (Kinshasa),,36702,1180986023
Ji-Parana,-10.8333,-61.967,Brazil,,65016,1076313540
Guayaramerin,-10.83,-65.41,Bolivia,,36008,1068744206
Xique-Xique,-10.82,-42.73,Brazil,,35433,1076763009
Colider,-10.8173,-55.4506,Brazil,,27139,1076780919
Guajara-Mirim,-10.8,-65.3499,Brazil,,69586,1076692558
Lata,-10.738,165.8567,Solomon Islands,admin,553,1090442496
Quibala,-10.7296,14.98,Angola,,8915,1024007950
Masasi,-10.7296,38.7999,Tanzania,,36032,1834414126
Kolwezi,-10.7167,25.4724,Congo (Kinshasa),admin,418000,1180380965
Luau,-10.7095,22.23,Angola,,18465,1024699465
Porto Nacional,-10.7,-48.4199,Brazil,,9129,1076043090
Pativilca,-10.6996,-77.8,Peru,,31905,1604804321
Dilolo,-10.6996,22.3333,Congo (Kinshasa),,7854,1180154207
Cerro de Pasco,-10.69,-76.27,Peru,admin,137232,1604446908
Songea,-10.68,35.65,Tanzania,admin,126449,1834461509
Muconda,-10.5996,21.32,Angola,,2324,1024646532
Chinsali,-10.5496,32.06,Zambia,admin,14015,1894041491
Kirakira,-10.4544,161.9205,Solomon Islands,admin,,1090349580
Senhor do Bonfim,-10.4496,-40.19,Brazil,,48471,1076513309
Kasaji,-10.3662,23.45,Congo (Kinshasa),,11969,1180795640
Alotau,-10.3021,150.4591,Papua New Guinea,admin,11624,1598284215
Penedo,-10.2696,-36.58,Brazil,,42097,1076906021
Mtwara,-10.2696,40.19,Tanzania,admin,96602,1834044142
Palmas,-10.2377,-48.2878,Brazil,admin,235315,1076052802
Kasama,-10.1996,31.1799,Zambia,admin,200000,1894305215
Kupang,-10.1787,123.583,Indonesia,admin,282396,1360696757
Cacolo,-10.1496,19.26,Angola,,984,1024592975
Huarmey,-10.0696,-78.16,Peru,,16172,1604582499
Amau,-10.0426,148.565,Papua New Guinea,,230,1598610032
Lindi,-10,39.7,Tanzania,admin,41912,1834550750
Calulo,-9.9996,14.9,Angola,,795,1024545873
Rio Branco,-9.9666,-67.8,Brazil,admin,257642,1076391263
Ariquemes,-9.9396,-63.08,Brazil,,58096,1076442639
Karonga,-9.9329,33.9333,Malawi,admin,34207,1454358935
Huanuco,-9.92,-76.24,Peru,admin,158145,1604589102
Alta Floresta,-9.9,-55.91,Brazil,,40466,1076069666
Kawambwa,-9.7795,29.08,Zambia,,20589,1894964184
Arapiraca,-9.75,-36.67,Brazil,,187668,1076615737
Chitipa,-9.7162,33.2666,Malawi,admin,13412,1454611219
Abuna,-9.6954,-65.3597,Brazil,,1929,1076632448
Dondo,-9.69,14.43,Angola,,2353,1024323066
Saurimo,-9.6596,20.39,Angola,admin,41316,1024326839
Waingapu,-9.6582,120.253,Indonesia,minor,48828,1360882365
Maceio,-9.62,-35.73,Brazil,admin,1186000,1076440479
Remanso,-9.5996,-42.11,Brazil,,37945,1076051035
Malanje,-9.54,16.34,Angola,admin,125856,1024774947
Huaraz,-9.53,-77.53,Peru,admin,86934,1604026500
Rio Largo,-9.48,-35.84,Brazil,,158545,1076018887
Port Moresby,-9.4647,147.1925,Papua New Guinea,primary,283733,1598685395
Casma,-9.44,-78.21,Peru,,30000,1604136455
Honiara,-9.438,159.9498,Solomon Islands,primary,76328,1090737486
Juazeiro,-9.42,-40.5,Brazil,,95132,1076632040
Capenda Camulemba,-9.4196,18.43,Angola,,80000,1024864144
Palmeira dos Indios,-9.4166,-36.6166,Brazil,,41095,1076723276
Petrolina,-9.38,-40.51,Brazil,,260985,1076843988
Nchelenge,-9.3496,28.73,Zambia,,23693,1894890604
Paulo Afonso,-9.3307,-38.2657,Brazil,,85350,1076084498
Njombe,-9.3296,34.77,Tanzania,admin,46724,1834328362
Suai,-9.3129,125.2565,Timor-Leste,admin,,1626458227
N'dalatando,-9.2995,14.91,Angola,admin,8144,1024645515
Tingo Maria,-9.2896,-75.99,Peru,,53177,1604736000
Tunduma,-9.2846,32.7749,Tanzania,,36556,1834094894
Tukuyu,-9.2496,33.64,Tanzania,,127570,1834960117
Bukama,-9.2096,25.84,Congo (Kinshasa),,38770,1180047354
Pante Macassar,-9.2,124.3833,Timor-Leste,admin,,1626175417
Aripuana,-9.17,-60.64,Brazil,,26983,1076078271
Daru,-9.1092,143.2337,Papua New Guinea,admin,15214,1598923764
Vwawa,-9.1081,32.9347,Tanzania,admin,,1834695780
Tulagi,-9.1031,160.1506,Solomon Islands,admin,,1090844311
Chimbote,-9.07,-78.57,Peru,,349846,1604199858
Sena Madureira,-9.07,-68.67,Brazil,,26192,1076899075
Same,-9.0042,125.6486,Timor-Leste,admin,,1626402267
Ainaro,-8.9969,125.505,Timor-Leste,admin,,1626118494
Maliana,-8.9917,125.2197,Timor-Leste,admin,,1626637884
Tournavista,-8.9322,-74.7052,Peru,,511,1604006133
Garanhuns,-8.89,-36.5,Brazil,,110085,1076673653
Mbeya,-8.89,33.43,Tanzania,admin,291649,1834396594
Ende,-8.8623,121.6489,Indonesia,minor,77205,1360796329
Viqueque,-8.8575,126.3647,Timor-Leste,admin,,1626768340
Mbala,-8.84,31.37,Zambia,,20570,1894671312
Luanda,-8.8383,13.2344,Angola,primary,5172900,1024949724
Barreiros,-8.8296,-35.2,Brazil,,35565,1076661261
Popondetta,-8.7692,148.2484,Papua New Guinea,admin,28198,1598887925
Auki,-8.7678,160.6978,Solomon Islands,admin,,1090993143
Porto Velho,-8.75,-63.9,Brazil,admin,306180,1076045591
Kamina,-8.73,25.01,Congo (Kinshasa),admin,128803,1180363197
Aileu,-8.7281,125.5664,Timor-Leste,admin,,1626766880
Gleno,-8.7239,125.4361,Timor-Leste,admin,,1626143485
Praya,-8.7223,116.2923,Indonesia,minor,35183,1360664646
Kulat,-8.7151,115.1841,Indonesia,,30012,1360003468
Luanza,-8.6996,28.7,Congo (Kinshasa),,861,1180293709
Denpasar,-8.65,115.22,Indonesia,admin,732344,1360848527
Maumere,-8.6189,122.2123,Indonesia,minor,104285,1360776014
Ruteng,-8.6118,120.4698,Indonesia,minor,53976,1360084520
Liquica,-8.5875,125.3419,Timor-Leste,admin,,1626054379
Caxito,-8.5795,13.66,Angola,admin,28224,1024050171
Mataram,-8.5795,116.135,Indonesia,admin,499409,1360021952
Dili,-8.5594,125.5795,Timor-Leste,primary,234331,1626308942
Lospalos,-8.5217,126.9983,Timor-Leste,admin,,1626878399
Funafuti,-8.5167,179.2166,Tuvalu,primary,4749,1798251391
Manatuto,-8.5114,126.0131,Timor-Leste,admin,,1626115337
Merauke,-8.4932,140.4018,Indonesia,minor,34412,1360904439
Baucau,-8.4757,126.4563,Timor-Leste,admin,,1626835210
Raba,-8.45,118.7666,Indonesia,minor,106101,1360014952
Arcoverde,-8.42,-37.07,Brazil,,57163,1076499713
Lucapa,-8.4196,20.74,Angola,,31041,1024056286
Pucallpa,-8.3689,-74.535,Peru,admin,310750,1604478712
Santo Agostinho,-8.29,-35.03,Brazil,,146219,1076363089
Caruaru,-8.28,-35.98,Brazil,,242094,1076397475
Conceicao do Araguaia,-8.25,-49.29,Brazil,,27115,1076224782
Salaverry,-8.22,-78.99,Peru,,10066,1604741233
Banyuwangi,-8.195,114.3696,Indonesia,minor,172424,1360008480
Camabatela,-8.1896,15.37,Angola,,12837,1024701540
Tocache Nuevo,-8.1796,-76.52,Peru,,29029,1604060187
Jember,-8.1727,113.6873,Indonesia,minor,298585,1360316553
Buala,-8.1448,159.5905,Solomon Islands,admin,,1090726690
Ifakara,-8.1296,36.68,Tanzania,,49528,1834456222
Trujillo,-8.12,-79.02,Peru,admin,765171,1604613706
Singaraja,-8.1152,115.0944,Indonesia,minor,234468,1360426282
Jaboatao,-8.11,-35.02,Brazil,,702621,1076000699
Gizo,-8.0996,156.835,Solomon Islands,admin,6154,1090427067
Recife,-8.0756,-34.9156,Brazil,admin,3651000,1076137337
Blitar,-8.0696,112.15,Indonesia,,132416,1360011677
Salgueiro,-8.0596,-39.13,Brazil,,42152,1076679973
Olinda,-8,-34.85,Brazil,,921840,1076784718
Malang,-7.98,112.61,Indonesia,,805000,1360141408
Sumbawanga,-7.9596,31.62,Tanzania,admin,89161,1834684278
Georgetown,-7.9286,-14.4119,"Saint Helena, Ascension, And Tristan Da Cunha",admin,,1654363572
Kerema,-7.927,145.838,Papua New Guinea,admin,5646,1598925932
Kilindoni,-7.9163,39.65,Tanzania,,12409,1834982666
Otuzco,-7.9,-78.57,Peru,,10134,1604161129
Ambriz,-7.855,13.125,Angola,,17000,1024609563
Carpina,-7.84,-35.26,Brazil,,165579,1076005200
Huamachuco,-7.81,-78.0499,Peru,,30835,1604864093
Kediri,-7.7896,112,Indonesia,,235143,1360498846
Yogyakarta,-7.78,110.375,Indonesia,admin,636660,1360384833
Iringa,-7.7696,35.69,Tanzania,admin,111820,1834453478
Probolinggo,-7.7496,113.15,Indonesia,,181656,1360138476
Kibiti,-7.7296,38.95,Tanzania,,30163,1834522080
Cilacap,-7.7188,109.0154,Indonesia,minor,1174964,1360503809
Madiun,-7.6346,111.515,Indonesia,,186099,1360921516
Cruzeiro do Sul,-7.63,-72.67,Brazil,,56862,1076881427
Pasuruan,-7.6296,112.9,Indonesia,,500000,1360084806
Uige,-7.62,15.05,Angola,admin,60008,1024666275
Cajabamba,-7.6196,-78.04,Peru,,13486,1604780784
Kaniama,-7.5696,24.17,Congo (Kinshasa),,36481,1180770775
Surakarta,-7.565,110.825,Indonesia,,555308,1360853933
Goiana,-7.5596,-35,Brazil,,71549,1076692421
Balsas,-7.52,-46.05,Brazil,,68056,1076067021
Timbauba,-7.4996,-35.32,Brazil,,57534,1076430214
Magelang,-7.4696,110.18,Indonesia,,111461,1360065728
Mojokerto,-7.4696,112.43,Indonesia,,112557,1360053101
Crato,-7.4639,-63.04,Brazil,,273883,1076425706
Kipili,-7.4329,30.6,Tanzania,,1533,1834589411
Pacasmayo,-7.4006,-79.5706,Peru,,39282,1604459740
Mikumi,-7.3996,36.98,Tanzania,,16780,1834405632
Dundo,-7.38,20.83,Angola,admin,11985,1024121799
Songo,-7.3496,14.85,Angola,,10579,1024923411
Contamana,-7.34,-75.02,Peru,minor,18921,1604465551
Tasikmalaya,-7.3254,108.2147,Indonesia,,271143,1360027771
Salatiga,-7.3095,110.4901,Indonesia,,176000,1360433768
Manono,-7.3,27.45,Congo (Kinshasa),,46111,1180968800
Kahemba,-7.2829,19,Congo (Kinshasa),,50000,1180689417
Surabaya,-7.2492,112.7508,Indonesia,admin,2845000,1360484663
Campina Grande,-7.23,-35.88,Brazil,,417261,1076218697
Crato,-7.2296,-39.42,Brazil,,273883,1076894967
Nzeto,-7.2296,12.86,Angola,,21059,1024025450
Juazeiro do Norte,-7.21,-39.32,Brazil,,225230,1076912078
Araguaina,-7.19,-48.21,Brazil,,50444,1076632868
Juanjui,-7.1696,-76.74,Peru,,37715,1604229756
Cajamarca,-7.15,-78.53,Peru,admin,142665,1604091119
Joao Pessoa,-7.1011,-34.8761,Brazil,admin,956000,1076922014
Xinguara,-7.1006,-49.948,Brazil,,4047,1076290442
Picos,-7.08,-41.44,Brazil,,57495,1076752928
Moba,-7.0596,29.72,Congo (Kinshasa),,10006,1180776583
Patos,-7.0196,-37.29,Brazil,,92575,1076232522
Sumenep,-7.0049,113.8496,Indonesia,minor,84656,1360439354
Mwene-Ditu,-7,23.44,Congo (Kinshasa),,189177,1180134137
Natal,-6.9838,-60.2699,Brazil,,980588,1076336975
Semarang,-6.9666,110.42,Indonesia,admin,1396000,1360745537
Bandung,-6.95,107.57,Indonesia,admin,2394000,1360313023
Sukabumi,-6.9096,106.9,Indonesia,,276414,1360447543
Tuban,-6.8995,112.05,Indonesia,minor,76242,1360482232
Pekalongan,-6.8796,109.67,Indonesia,,272000,1360039434
Tegal,-6.8696,109.12,Indonesia,,237084,1360035814
Kilosa,-6.8396,36.99,Tanzania,,91889,1834242035
Puerto Pimentel,-6.8296,-79.93,Peru,,15552,1604924541
Morogoro,-6.82,37.66,Tanzania,admin,250902,1834185429
Karema,-6.8162,30.4333,Tanzania,,16385,1834711465
Dar es Salaam,-6.8,39.2683,Tanzania,primary,2930000,1834843853
Floriano,-6.7696,-43.03,Brazil,,48587,1076813660
Kibaha,-6.7667,38.9167,Tanzania,admin,23651,1834065400
Chiclayo,-6.7629,-79.8366,Peru,admin,596792,1604799615
Pati,-6.7415,111.0347,Indonesia,minor,122785,1360407556
Gandajika,-6.7396,23.96,Congo (Kinshasa),,154425,1180466776
Cirebon,-6.7333,108.5666,Indonesia,,254298,1360011375
Lae,-6.733,146.99,Papua New Guinea,admin,131052,1598466091
Taro,-6.7111,156.3972,Solomon Islands,admin,,1090931394
Eirunepe,-6.66,-69.8738,Brazil,,21750,1076884388
Ferrenafe,-6.63,-79.8,Peru,,50184,1604452796
Bogor,-6.57,106.75,Indonesia,,918000,1360771925
Chota,-6.5496,-78.65,Peru,,14240,1604928947
Tarapoto,-6.51,-76.48,Peru,,936,1604622202
Dibaya,-6.5095,22.87,Congo (Kinshasa),,603,1180985189
Kasongo-Lunda,-6.4796,16.83,Congo (Kinshasa),,20060,1180706751
Nova Cruz,-6.4696,-35.44,Brazil,,23166,1076169350
Caico,-6.4596,-37.1,Brazil,,54934,1076251820
Bagamoyo,-6.4396,38.89,Tanzania,,82426,1834546518
Lamas,-6.43,-76.52,Peru,,13693,1604035883
Tshikapa,-6.41,20.77,Congo (Kinshasa),,267462,1180581239
Ico,-6.4,-38.85,Brazil,,28323,1076569458
Iguatu,-6.36,-39.3,Brazil,,70380,1076734026
Mpanda,-6.3596,31.05,Tanzania,admin,73338,1834127573
Mpwapwa,-6.3496,36.48,Tanzania,,19806,1834235223
Indramayu,-6.3356,108.319,Indonesia,minor,123263,1360004807
Tocantinopolis,-6.3196,-47.42,Brazil,,8750,1076917053
Mbanza Congo,-6.2696,14.24,Angola,admin,60182,1024532464
Jacareacanga,-6.2666,-57.65,Brazil,,31661,1076980493
Chachapoyas,-6.2296,-77.87,Peru,admin,25978,1604650674
Arawa,-6.228,155.566,Papua New Guinea,,40266,1598413091
Santa Cruz,-6.22,-36.03,Brazil,,27775,1076706078
Bekasi,-6.2173,106.9723,Indonesia,,2378211,1360006015
Kieta,-6.2163,155.6333,Papua New Guinea,,6958,1598490894
Dodoma,-6.1833,35.75,Tanzania,primary,218269,1834288497
Jakarta,-6.1744,106.8294,Indonesia,primary,9125000,1360771077
Zanzibar,-6.16,39.2,Tanzania,admin,403658,1834823848
Motupe,-6.15,-79.71,Peru,,13681,1604380129
Mbuji-Mayi,-6.15,23.6,Congo (Kinshasa),admin,1295000,1180399586
Mendi,-6.1444,143.6452,Papua New Guinea,admin,26252,1598467297
Koani,-6.1333,39.2833,Tanzania,admin,,1834376215
Soio,-6.1296,12.37,Angola,,67491,1024903782
Kabinda,-6.1296,24.48,Congo (Kinshasa),admin,59004,1180751831
Serang,-6.11,106.1496,Indonesia,admin,164767,1360329102
Goroka,-6.0833,145.3855,Papua New Guinea,admin,39699,1598928169
Moyobamba,-6.0496,-76.9667,Peru,admin,47734,1604635600
Kabalo,-6.0496,26.91,Congo (Kinshasa),,29833,1180905835
Colinas,-6.0395,-44.24,Brazil,,25158,1076657010
Kundiawa,-6.023,144.96,Papua New Guinea,admin,9383,1598730976
Taua,-5.9995,-40.31,Brazil,,29188,1076825475
Mahonda,-5.9897,39.2519,Tanzania,admin,,1834907448
Olmos,-5.9796,-79.75,Peru,,9800,1604825576
Nyunzu,-5.9496,28.0167,Congo (Kinshasa),,15397,1180921995
Kalemie,-5.9333,29.2,Congo (Kinshasa),admin,206257,1180574233
Moanda,-5.9229,12.355,Congo (Kinshasa),,153915,1180108441
Kananga,-5.89,22.4,Congo (Kinshasa),admin,765000,1180172460
Mkokotoni,-5.879,39.26,Tanzania,minor,2572,1834206004
Mount Hagen,-5.8632,144.2168,Papua New Guinea,admin,59064,1598400611
Kurumul,-5.855,144.6311,Papua New Guinea,admin,,1598000045
Tari,-5.845,142.9467,Papua New Guinea,admin,,1598669271
Boma,-5.83,13.05,Congo (Kinshasa),,178638,1180611452
Matadi,-5.8166,13.45,Congo (Kinshasa),admin,245862,1180529604
Manicore,-5.8122,-61.2975,Brazil,,21549,1076657983
Grajau,-5.81,-46.15,Brazil,,30217,1076344134
Natal,-5.78,-35.24,Brazil,admin,1088000,1076697777
Manyoni,-5.7796,34.9,Tanzania,,310,1834963293
Jaen,-5.7096,-78.81,Peru,,52493,1604707495
Itigi,-5.6996,34.48,Tanzania,,19711,1834524806
Apodi,-5.65,-37.8,Brazil,,16757,1076092856
Sikonge,-5.6295,32.77,Tanzania,,27113,1834313836
Lusanga,-5.5829,16.5167,Congo (Kinshasa),,177,1180423801
Acu,-5.5796,-36.9101,Brazil,,36125,1076000524
Sechura,-5.5596,-80.82,Peru,,23020,1604728914
Cabinda,-5.5596,12.19,Angola,admin,91791,1024474012
Kimbe,-5.55,150.143,Papua New Guinea,admin,18847,1598372456
Kimpese,-5.5496,14.4333,Congo (Kinshasa),,10578,1180273961
Imperatriz,-5.52,-47.49,Brazil,,218106,1076486025
Barra do Corda,-5.5096,-45.26,Brazil,,48901,1076745135
Demba,-5.5096,22.26,Congo (Kinshasa),,22263,1180021198
Wabag,-5.49,143.718,Papua New Guinea,admin,3958,1598428400
Hoskins,-5.4746,150.41,Papua New Guinea,,871,1598684520
Baubau,-5.4699,122.6163,Indonesia,,24412,1360789994
Buka,-5.4308,154.6706,Papua New Guinea,admin,,1598000066
Bandar Lampung,-5.43,105.27,Indonesia,admin,865000,1360243491
Sohano,-5.4297,154.6711,Papua New Guinea,,2338,1598474458
Lubao,-5.3896,25.75,Congo (Kinshasa),,43068,1180891619
Kongolo,-5.3795,26.98,Congo (Kinshasa),,105202,1180814807
Maraba,-5.35,-49.116,Brazil,,166182,1076974144
Luebo,-5.3495,21.41,Congo (Kinshasa),admin,35183,1180012250
Presidente Dutra,-5.25,-44.52,Brazil,,30330,1076660845
Mbanza-Ngungu,-5.2496,14.86,Congo (Kinshasa),,197545,1180474388
Chake Chake,-5.2395,39.77,Tanzania,admin,49959,1834409018
Madang,-5.2248,145.7853,Papua New Guinea,admin,62023,1598116558
Piura,-5.21,-80.63,Peru,admin,396932,1604331641
Mossoro,-5.19,-37.34,Brazil,,202583,1076461194
Crateus,-5.1656,-40.666,Brazil,,52933,1076897989
Makassar,-5.14,119.432,Indonesia,admin,1262000,1360051337
Itupiranga,-5.12,-49.3,Brazil,,21301,1076086545
Uvinza,-5.1196,30.39,Tanzania,,80350,1834561245
Timon,-5.115,-42.845,Brazil,,203157,1076758286
Teresina,-5.095,-42.78,Brazil,admin,907000,1076727667
Paita,-5.09,-81.12,Peru,,56151,1604588759
Chulucanas,-5.0896,-80.17,Peru,,68835,1604692561
Korogwe,-5.0896,38.54,Tanzania,,50000,1834605335
Tanga,-5.07,39.09,Tanzania,admin,224876,1834004568
Requena,-5.0696,-73.91,Peru,,18000,1604712979
Wete,-5.0635,39.7258,Tanzania,admin,26450,1834217491
Kikwit,-5.03,18.85,Congo (Kinshasa),admin,637736,1180518247
Tabora,-5.02,32.8,Tanzania,admin,146495,1834712235
Quixada,-4.97,-39.02,Brazil,,49328,1076173437
Tshela,-4.9696,12.93,Congo (Kinshasa),,38845,1180377922
Lusambo,-4.9696,23.43,Congo (Kinshasa),admin,41416,1180127290
Russas,-4.94,-37.98,Brazil,,39465,1076843360
Sullana,-4.8896,-80.68,Peru,,160789,1604666111
Kigoma,-4.8796,29.61,Tanzania,admin,164268,1834583327
Mweka,-4.8396,21.57,Congo (Kinshasa),,50675,1180140663
Kotabumi,-4.8333,104.9,Indonesia,minor,42366,1360992670
Caxias,-4.833,-43.35,Brazil,,134640,1076325693
Kenge,-4.8296,16.8999,Congo (Kinshasa),admin,241,1180158365
Campo Maior,-4.82,-42.18,Brazil,,31739,1076002814
Singida,-4.8196,34.74,Tanzania,admin,62432,1834418526
Pointe-Noire,-4.77,11.88,Congo (Brazzaville),admin,659084,1178411563
Loango,-4.6519,11.8125,Congo (Brazzaville),admin,,1178836764
Victoria,-4.6166,55.45,Seychelles,primary,33576,1690193579
Talara,-4.58,-81.28,Peru,,99074,1604790735
Kasangulu,-4.5796,15.18,Congo (Kinshasa),,27961,1180582533
Kasulu,-4.5796,30.1,Tanzania,,37349,1834918111
Nauta,-4.57,-73.78,Peru,,2500,1604159322
Pedreiras,-4.5696,-44.67,Brazil,,13638,1076527878
Aracati,-4.56,-37.77,Brazil,,44293,1076708817
Bulungu,-4.5496,18.6,Congo (Kinshasa),,48344,1180342743
Tinipuka,-4.5496,136.89,Indonesia,,26021,1360525797
Watampone,-4.5328,120.3334,Indonesia,minor,81629,1360956480
Codo,-4.4796,-43.88,Brazil,,83288,1076537068
Kanyato,-4.4565,30.2614,Tanzania,,232,1834158031
Kasongo,-4.45,26.66,Congo (Kinshasa),,63000,1180000473
Macara,-4.3796,-79.95,Ecuador,,13035,1218426387
Kinkala,-4.356,14.762,Congo (Brazzaville),admin,13882,1178867565
Kokopo,-4.3525,152.2606,Papua New Guinea,admin,,1598823962
Caninde,-4.35,-39.31,Brazil,,42720,1076519156
Kinshasa,-4.3297,15.315,Congo (Kinshasa),primary,7843000,1180000363
Baturite,-4.3296,-38.88,Brazil,,22417,1076144455
Ipu,-4.3196,-40.7201,Brazil,,26678,1076972725
Ilebo,-4.3196,20.61,Congo (Kinshasa),,107093,1180788280
Piripiri,-4.2696,-41.79,Brazil,,44864,1076867493
Brazzaville,-4.2592,15.2847,Congo (Brazzaville),primary,1355000,1178340306
Itaituba,-4.2586,-55.925,Brazil,,92308,1076849673
Barras,-4.25,-42.3,Brazil,,21597,1076766658
Bacabal,-4.23,-44.8,Brazil,,72372,1076125117
Leticia,-4.22,-69.94,Colombia,admin,59575,1170548641
Babati,-4.2195,35.75,Tanzania,admin,34291,1834081851
Nzega,-4.2096,33.18,Tanzania,,26584,1834034762
Rabaul,-4.2055,152.1434,Papua New Guinea,,8074,1598973225
Kayes,-4.18,13.28,Congo (Brazzaville),,62521,1178012015
Dolisie,-4.1796,12.67,Congo (Brazzaville),admin,103894,1178045241
Kwale,-4.1737,39.4521,Kenya,admin,,1404769042
Madingou,-4.164,13.554,Congo (Brazzaville),admin,22760,1178057279
Makamba,-4.1333,29.8,Burundi,admin,19642,1108520771
Coroata,-4.1296,-44.15,Brazil,,34129,1076890180
Coari,-4.08,-63.13,Brazil,,53305,1076899406
Zamora,-4.0696,-78.97,Ecuador,admin,15276,1218873167
Same,-4.0696,37.72,Tanzania,,17455,1834888088
Mombasa,-4.04,39.6899,Kenya,admin,882000,1404512373
Mangai,-4.0396,19.53,Congo (Kinshasa),,37188,1180224936
Parepare,-4.0167,119.6333,Indonesia,,87776,1360021476
Loja,-3.99,-79.21,Ecuador,admin,126368,1218739896
Rumonge,-3.9736,29.4386,Burundi,admin,,1108641885
Kendari,-3.9553,122.5973,Indonesia,admin,165377,1360992102
Bururi,-3.9507,29.6166,Burundi,admin,20393,1108963889
Rutana,-3.931,29.993,Burundi,admin,20893,1108441253
Caballococha,-3.9163,-70.5083,Peru,,3195,1604340559
Mbulu,-3.8496,35.53,Tanzania,,13430,1834497748
Kahama,-3.8196,32.58,Tanzania,,36014,1834043034
Bengkulu,-3.8,102.27,Indonesia,admin,426673,1360191448
Lahat,-3.8,103.5333,Indonesia,minor,65906,1360094721
Pinrang,-3.7857,119.6522,Indonesia,minor,182731,1360941841
Iquitos,-3.75,-73.25,Peru,admin,458729,1604493809
Fortaleza,-3.75,-38.58,Brazil,admin,3602319,1076567885
Chapadinha,-3.7395,-43.36,Brazil,,40804,1076901443
Ambon,-3.7167,128.2,Indonesia,admin,355596,1360756802
Sobral,-3.69,-40.35,Brazil,,157996,1076577102
Sibiti,-3.6896,13.35,Congo (Brazzaville),admin,22811,1178867178
Tucurui,-3.68,-49.72,Brazil,,76337,1076000076
Pinas,-3.67,-79.65,Ecuador,,16981,1218213967
Santa Ines,-3.66,-45.39,Brazil,,67424,1076053036
Shinyanga,-3.6596,33.42,Tanzania,admin,107362,1834972707
Kilifi,-3.6096,39.85,Kenya,admin,80339,1404080121
Kampene,-3.5995,26.67,Congo (Kinshasa),,37034,1180064621
Tumbes,-3.57,-80.46,Peru,admin,109223,1604505281
Wewak,-3.5535,143.6367,Papua New Guinea,admin,25143,1598405100
Majene,-3.5336,118.966,Indonesia,minor,272377,1360498576
Mwaro,-3.5113,29.7051,Burundi,admin,,1108739103
Mwatate,-3.505,38.3772,Kenya,admin,,1404648092
Itapipoca,-3.4995,-39.58,Brazil,,55784,1076980375
Lodja,-3.4896,23.42,Congo (Kinshasa),,68244,1180001261
Ruyigi,-3.481,30.244,Burundi,admin,38458,1108406902
Prabumulih,-3.4432,104.2315,Indonesia,minor,103470,1360148993
Gitega,-3.4271,29.9246,Burundi,primary,,1108778000
Gitega,-3.426,29.8436,Burundi,,23167,1108962433
Mayumba,-3.4166,10.65,Gabon,,3996,1266317571
Martapura,-3.4135,114.8365,Indonesia,minor,198239,1360139854
Itapecuru Mirim,-3.4,-44.36,Brazil,,34943,1076422017
Paracuru,-3.3995,-39.04,Brazil,,21196,1076591278
Maues,-3.3896,-57.72,Brazil,,32561,1076490155
Bujumbura,-3.3761,29.36,Burundi,primary,331700,1108101689
Uvira,-3.37,29.14,Congo (Kinshasa),,170391,1180205443
Voi,-3.3696,38.57,Kenya,,36487,1404504656
Tefe,-3.36,-64.7,Brazil,,51437,1076049089
Arusha,-3.36,36.67,Tanzania,admin,341136,1834484937
Nabire,-3.3515,135.5134,Indonesia,minor,43898,1360322221
Oldeani,-3.3496,35.55,Tanzania,,8000,1834474820
Isale,-3.3489,29.4839,Burundi,admin,,1108407022
Moshi,-3.3396,37.34,Tanzania,admin,721018,1834217168
Banjarmasin,-3.33,114.5801,Indonesia,admin,603576,1360685223
Amahai,-3.3281,128.9405,Indonesia,minor,47653,1360767250
Bandundu,-3.31,17.38,Congo (Kinshasa),,118211,1180219776
Manacapuru,-3.2896,-60.62,Brazil,,59102,1076484341
Kakonko,-3.2796,30.96,Tanzania,,24688,1834778373
Muramvya,-3.261,29.612,Burundi,admin,18041,1108007544
Machala,-3.26,-79.96,Ecuador,admin,213034,1218378191
Ngorongoro,-3.2496,35.52,Tanzania,,10836,1834381549
Malindi,-3.21,40.1,Kenya,,94016,1404380224
Viana,-3.2096,-45,Brazil,,26689,1076423280
Altamira,-3.1996,-52.21,Brazil,,70888,1076710878
Cankuzo,-3.1667,30.5167,Burundi,admin,6585,1108631099
Itacoatiara,-3.14,-58.44,Brazil,,51509,1076759384
Granja,-3.1195,-40.84,Brazil,,25879,1076052166
Manaus,-3.1,-60,Brazil,admin,1753000,1076607274
Karuzi,-3.1,30.163,Burundi,admin,10705,1108619045
Palopo,-3.0999,120.2363,Indonesia,,2444,1360740288
Kuala Kapuas,-3.0996,114.35,Indonesia,minor,35632,1360858401
Makale,-3.0968,119.8531,Indonesia,minor,9960,1360576738
Bubanza,-3.0833,29.3667,Burundi,admin,12728,1108018348
Mwenga,-3.0382,28.4325,Congo (Kinshasa),,2216,1180606289
Mushie,-3.0196,16.92,Congo (Kinshasa),,33062,1180240809
Tsavo,-2.9828,38.4666,Kenya,,414,1404321644
Palembang,-2.98,104.75,Indonesia,admin,1749000,1360902897
Kindu,-2.9639,25.91,Congo (Kinshasa),admin,262914,1180106925
Paragominas,-2.9596,-47.49,Brazil,,69613,1076092855
Rosario,-2.94,-44.26,Brazil,,6798,1076804900
Mossendjo,-2.9396,12.72,Congo (Brazzaville),,30936,1178679314
Ngozi,-2.912,29.825,Burundi,admin,21506,1108753930
Parnaiba,-2.91,-41.77,Brazil,,138008,1076568871
Andoas,-2.9021,-76.4025,Peru,,10,1604038416
Cuenca,-2.9,-79,Ecuador,admin,286878,1218041020
Camocim,-2.9,-40.85,Brazil,,44481,1076563942
Kayanza,-2.9,29.5667,Burundi,admin,19443,1108413426
Acarau,-2.8896,-40.12,Brazil,,28389,1076016462
Cibitoke,-2.8869,29.1248,Burundi,admin,,1108176356
Tonantins,-2.8727,-67.8019,Brazil,,4561,1076820908
Geita,-2.8662,32.1666,Tanzania,admin,1536,1834469543
Tchibanga,-2.857,11.027,Gabon,admin,19365,1266060335
Yaupi,-2.8543,-77.9363,Ecuador,,293,1218516951
Muyinga,-2.8523,30.3173,Burundi,admin,71076,1108466781
Bariadi,-2.8069,33.9878,Tanzania,admin,,1834546025
Tanjungpandan,-2.75,107.65,Indonesia,minor,62374,1360732632
Azogues,-2.74,-78.84,Ecuador,admin,69087,1218651012
Vanimo,-2.69,141.304,Papua New Guinea,admin,11204,1598892363
Mamuju,-2.6806,118.8861,Indonesia,admin,,1360687242
Gamba,-2.65,10,Gabon,,9928,1266236988
Biharamulo,-2.6296,31.31,Tanzania,,34038,1834491817
Novo Airao,-2.6208,-60.9438,Brazil,,9049,1076092136
Parintins,-2.61,-56.74,Brazil,,64428,1076090375
Butare,-2.5896,29.73,Rwanda,,77000,1646348441
Kirundo,-2.5847,30.0972,Burundi,admin,6083,1108527579
Kavieng,-2.5813,150.813,Papua New Guinea,admin,19728,1598946326
Sao Jose de Ribamar,-2.55,-44.07,Brazil,,55265,1076976057
Djambala,-2.5396,14.75,Congo (Brazzaville),admin,9651,1178834249
Namanga,-2.5396,36.8,Kenya,,13193,1404000001
Jayapura,-2.533,140.7,Indonesia,admin,169341,1360517692
Sampit,-2.5329,112.95,Indonesia,minor,92710,1360020231
Mwanza,-2.52,32.93,Tanzania,admin,493944,1834011288
Pinheiro,-2.5196,-45.09,Brazil,,38893,1076349995
Soldado Bartra,-2.5161,-75.7666,Peru,,10,1604302193
Sao Luis,-2.516,-44.266,Brazil,admin,1038000,1076819308
Fonte Boa,-2.5138,-66.0916,Brazil,,16060,1076851330
Bukavu,-2.51,28.84,Congo (Kinshasa),admin,436779,1180475821
Kalima,-2.5096,26.43,Congo (Kinshasa),,194,1180335450
Gikongoro,-2.4833,29.5667,Rwanda,,15000,1646632562
Cyangugu,-2.4796,28.9,Rwanda,,19900,1646073091
Ngara,-2.4695,30.65,Tanzania,,16890,1834067520
Santarem,-2.4333,-54.7,Brazil,,230428,1076256494
Ndende,-2.3829,11.3833,Gabon,,6200,1266578957
Nyahanga,-2.3829,33.55,Tanzania,,16092,1834609339
Witu,-2.3796,40.43,Kenya,,5380,1404037095
Nyanza,-2.3496,29.74,Rwanda,admin,225209,1646257566
Puca Urco,-2.3328,-71.9167,Peru,,10,1604085670
Macas,-2.3096,-78.12,Ecuador,admin,23687,1218176372
Lamu,-2.262,40.9197,Kenya,admin,24525,1404163131
Cameta,-2.2396,-49.51,Brazil,,45200,1076010069
Santa Elena,-2.2262,-80.8587,Ecuador,admin,,1218296446
Guayaquil,-2.22,-79.92,Ecuador,admin,2514000,1218802178
Palangkaraya,-2.2096,113.91,Indonesia,admin,148289,1360268553
Salinas,-2.2,-80.98,Ecuador,,43862,1218838548
Alausi,-2.19,-78.85,Ecuador,,14294,1218578121
Milagro,-2.1796,-79.6,Ecuador,,109970,1218568564
Kibungo,-2.1667,30.5333,Rwanda,,46240,1646746155
Bolobo,-2.1595,16.24,Congo (Kinshasa),,27862,1180723089
Pangkalpinang,-2.08,106.15,Indonesia,admin,125933,1360901919
Gitarama,-2.0696,29.76,Rwanda,,87613,1646038255
Sungai Penuh,-2.0631,101.3964,Indonesia,,95913,1360337679
Kibuye,-2.05,29.35,Rwanda,admin,48024,1646264461
Lorengau,-2.032,147.28,Papua New Guinea,admin,5806,1598571197
Kigali,-1.9536,30.0605,Rwanda,primary,860000,1646923541
Portel,-1.95,-50.82,Brazil,,21315,1076977846
Rwamagana,-1.9487,30.4347,Rwanda,admin,,1646996571
Inongo,-1.94,18.28,Congo (Kinshasa),admin,40113,1180194164
Alenquer,-1.9396,-54.79,Brazil,,26290,1076529970
Obidos,-1.91,-55.52,Brazil,,27587,1076197849
Gamboma,-1.8795,15.85,Congo (Brazzaville),,20877,1178991023
Mouila,-1.8662,11.0167,Gabon,admin,28000,1266074474
Kajiado,-1.8524,36.7768,Kenya,admin,,1404265412
Babahoyo,-1.7996,-79.54,Ecuador,admin,76279,1218156392
Wote,-1.7808,37.6288,Kenya,admin,,1404304549
Oriximina,-1.7596,-55.87,Brazil,,35581,1076567469
Capitao Poco,-1.7496,-47.09,Brazil,,32704,1076870027
Konza,-1.7496,37.12,Kenya,,2004,1404143289
Abaetetuba,-1.7245,-48.8849,Brazil,,79420,1076974632
Gisenyi,-1.6847,29.2629,Rwanda,,83623,1646226936
Breves,-1.68,-50.49,Brazil,,47164,1076061751
Goma,-1.6788,29.2218,Congo (Kinshasa),admin,144124,1180805022
Riobamba,-1.67,-78.65,Ecuador,admin,172464,1218552075
Franceville,-1.6333,13.5833,Gabon,admin,42967,1266537692
Guaranda,-1.61,-79.01,Ecuador,admin,27866,1218581593
Jambi,-1.59,103.61,Indonesia,admin,457090,1360645580
Byumba,-1.5796,30.06,Rwanda,admin,70593,1646868980
Omboue,-1.5662,9.25,Gabon,,1667,1266708175
Moanda,-1.5655,13.2,Gabon,,30151,1266295581
Machakos,-1.5095,37.26,Kenya,admin,144925,1404746781
Ruhengeri,-1.4996,29.63,Rwanda,,86685,1646793543
Hola,-1.4993,40.0301,Kenya,admin,,1404396632
Musoma,-1.4896,33.8,Tanzania,admin,133156,1834100025
Puyo,-1.483,-77.987,Ecuador,admin,24881,1218537461
Belem,-1.45,-48.48,Brazil,admin,2167000,1076646823
Pale,-1.4014,5.6325,Equatorial Guinea,admin,,1226970205
Poso,-1.3896,120.76,Indonesia,minor,47110,1360727615
Kitui,-1.367,38.0106,Kenya,admin,,1404548296
Kisoro,-1.3539,29.6983,Uganda,admin,12900,1800685460
Jipijapa,-1.3496,-80.58,Ecuador,,35901,1218962184
Bukoba,-1.3196,31.8,Tanzania,admin,100504,1834433264
Castanhal,-1.2896,-47.93,Brazil,,137406,1076216938
Nairobi,-1.2833,36.8167,Kenya,primary,3010000,1404000661
Ambato,-1.2696,-78.62,Ecuador,admin,281425,1218046148
Balikpapan,-1.25,116.83,Indonesia,,445905,1360500922
Kabale,-1.2496,29.98,Uganda,admin,44600,1800408751
Buur Gaabo,-1.2009,41.852,Somalia,,3096,1706122850
Viseu,-1.1965,-46.14,Brazil,,18958,1076429547
Capanema,-1.19,-47.18,Brazil,,47766,1076799309
Rubanda,-1.1883,29.8461,Uganda,admin,,1800066560
Ikela,-1.1829,23.2666,Congo (Kinshasa),,291,1180365335
Kiambu,-1.1714,36.8356,Kenya,admin,,1404390868
Mparo,-1.1647,30.0378,Uganda,admin,,1800207938
Biak,-1.1615,136.0485,Indonesia,minor,103610,1360911386
Koulamoutou,-1.1329,12.4833,Gabon,admin,16222,1266049565
Narok,-1.0808,35.8711,Kenya,admin,,1404459814
Migori,-1.0634,34.4731,Kenya,admin,,1404478510
Portoviejo,-1.06,-80.46,Ecuador,admin,213601,1218169586
Braganca,-1.05,-46.77,Brazil,,57163,1076855072
Thika,-1.0396,37.09,Kenya,,99322,1404482650
Manta,-0.98,-80.73,Ecuador,,183166,1218160109
Tena,-0.9796,-77.81,Ecuador,admin,31126,1218759537
Barcelos,-0.975,-62.9239,Brazil,,12584,1076105080
Padang,-0.96,100.36,Indonesia,admin,855000,1360900986
Kanungu,-0.9575,29.7897,Uganda,admin,,1800715667
Luwuk,-0.9396,122.79,Indonesia,minor,47778,1360727028
Puerto Villamil,-0.9333,-91.0167,Ecuador,,2200,1218383536
Rocafuerte,-0.9329,-75.4,Peru,,40,1604951110
Latacunga,-0.9296,-78.61,Ecuador,admin,94972,1218947988
Mwingi,-0.9296,38.07,Kenya,,11219,1404312666
Palu,-0.907,119.833,Indonesia,admin,612445,1360518272
Puerto Baquerizo Moreno,-0.9,-89.6,Ecuador,admin,6030,1218093882
Ewo,-0.8796,14.82,Congo (Brazzaville),admin,10650,1178339407
Ntungamo,-0.8794,30.2642,Uganda,admin,16400,1800042819
Manokwari,-0.8711,134.0693,Indonesia,admin,74504,1360451991
Isingiro,-0.8686,30.8302,Uganda,admin,,1800843586
Sorong,-0.8554,131.285,Indonesia,,125535,1360018780
Karungu,-0.8496,34.15,Kenya,,2376,1404796412
Rukungiri,-0.8411,29.9419,Uganda,admin,,1800982268
Sotik Post,-0.7813,35.3416,Kenya,admin,,1404087664
Buluko,-0.757,28.528,Congo (Kinshasa),,1192,1180000569
